,HostelName,VenueName,Category,VenueLatitude,VenueLongitude
70,&And Hostel Akihabara,Akihabara Station (秋葉原駅),Train Station,35.698357154071296,139.7731203585863
71,&And Hostel Akihabara,Yodobashi-Akiba (ヨドバシカメラ マルチメディアAkiba),Electronics Store,35.6987131,139.7747612
72,&And Hostel Akihabara,THE IDOLM@STER Official Shop (アイドルマスター オフィシャルショップ),Toy / Game Store,35.69836386063336,139.77229786003596
73,&And Hostel Akihabara,JR Sōbu Line Akihabara Station (JR 総武線 秋葉原駅),Train Station,35.698358444031356,139.77328760273127
74,&And Hostel Akihabara,Akihabara Electric Town Exit (秋葉原駅 電気街口),Train Station,35.69881848574108,139.77257002539486
75,&And Hostel Akihabara,Shosen Book Tower (書泉ブックタワー),Bookstore,35.697324,139.775157
76,&And Hostel Akihabara,HUB,Pub,35.700042797337176,139.77398936790024
77,&And Hostel Akihabara,Volks Doll Point (ボークス ドールポイント 秋葉原),Hobby Shop,35.69791261646235,139.77204330018
78,&And Hostel Akihabara,Sarutahiko Coffee (猿田彦珈琲),Coffee Shop,35.69846977490889,139.77235928177834
79,&And Hostel Akihabara,Gyoza Ohsho Express (餃子の王将 Express),Dumpling Restaurant,35.69849046799201,139.77223992347717
80,&And Hostel Akihabara,Milk Stand (ミルクスタンド),Juice Bar,35.69838992357802,139.7729447934095
81,&And Hostel Akihabara,Izakaya Wagaya (居酒屋 和が家),Sake Bar,35.696188057278185,139.77506428956985
82,&And Hostel Akihabara,CHABARA (ちゃばら),Gourmet Shop,35.69970202241145,139.77308068378443
83,&And Hostel Akihabara,MAZERU (麺処 MAZERU),Ramen Restaurant,35.697924,139.774406
84,&And Hostel Akihabara,HUB,Pub,35.697975,139.774209
85,&And Hostel Akihabara,MILK SHOP LUCK 酪,Juice Bar,35.69842031462254,139.77332726002533
86,&And Hostel Akihabara,Active AKIBA Batting Center (アクティブAKIBAバッティングセンター),Athletics & Sports,35.69871524674489,139.77457483629485
87,&And Hostel Akihabara,Tonbe (とんべェ),Sake Bar,35.698958,139.775153
88,&And Hostel Akihabara,ライフ 神田和泉町店,Supermarket,35.69984975984281,139.77996544005146
89,&And Hostel Akihabara,Pop Life Department M's (大人のデパート エムズ),Adult Boutique,35.697656699506034,139.7724960818333
90,&And Hostel Akihabara,Tokyo Tonteki (東京トンテキ),Steakhouse,35.69865481171322,139.77464672142534
91,&And Hostel Akihabara,Mimatsu Tobacco (ミマツたばこ),Smoke Shop,35.69726977111137,139.77300703525543
92,&And Hostel Akihabara,Mita Seimenjo (三田製麺所),Ramen Restaurant,35.69869304210099,139.77448225021362
93,&And Hostel Akihabara,日本百貨店 しょくひんかん,Gourmet Shop,35.69981345583291,139.77315333214005
94,&And Hostel Akihabara,Fukunoken (福の軒),Ramen Restaurant,35.69789366688633,139.7749376599205
95,&And Hostel Akihabara,Aoshima Shokudo (青島食堂),Ramen Restaurant,35.697483688824704,139.77886967360973
96,&And Hostel Akihabara,82 ALE HOUSE,Pub,35.69793214396875,139.7739636599719
97,&And Hostel Akihabara,Yun Rin Bou (雲林坊),Chinese Restaurant,35.695506,139.772773
98,&And Hostel Akihabara,Go Go Curry (ゴーゴーカレー),Japanese Curry Restaurant,35.6976419280583,139.7746378183365
99,&And Hostel Akihabara,立ち飲み 串吟,Sake Bar,35.6975834955742,139.77360286799347
100,&And Hostel Akihabara,Curry wa Nomimono (カレーは飲み物。),Japanese Curry Restaurant,35.700855,139.775837
101,&And Hostel Akihabara,CoCo Ichibanya (CoCo壱番屋),Japanese Curry Restaurant,35.698447,139.775764
102,&And Hostel Akihabara,Shimonya (四文屋),Sake Bar,35.69844656325336,139.7762417793274
103,&And Hostel Akihabara,Uogashi Nihon-ichi (魚がし日本一),Sushi Restaurant,35.698465655355,139.77224101969006
104,&And Hostel Akihabara,Oasis @akiba (オアシス@akiba),Public Bathroom,35.69889488142114,139.77385526890643
105,&And Hostel Akihabara,ヨドバシAkiba カメラコーナー,Camera Store,35.698501359086244,139.77463245391846
106,&And Hostel Akihabara,なぜ蕎麦にラー油を入れるのか。,Soba Restaurant,35.700392,139.77582
107,&And Hostel Akihabara,The French Toast Factory,Café,35.69868079250966,139.7746425271058
108,&And Hostel Akihabara,Marufuku Coffee (丸福珈琲店),Café,35.69861025537081,139.7743035386268
109,&And Hostel Akihabara,Hakata Furyu (博多風龍),Ramen Restaurant,35.698367,139.775223
110,&And Hostel Akihabara,CLUB GOODMAN,Rock Club,35.697186,139.77647
111,&And Hostel Akihabara,Yonpachi Gyojo (四十八漁場),Sake Bar,35.69835,139.7748
112,&And Hostel Akihabara,Spaghetti Pancho (スパゲッティーのパンチョ),Yoshoku Restaurant,35.698566,139.775248
113,&And Hostel Akihabara,PABLO mini,Dessert Shop,35.6981292298426,139.772000722316
114,&And Hostel Akihabara,Shiina no Gohan Rice Ball Factory (シイナノゴハン),Japanese Restaurant,35.693821,139.774221
115,&And Hostel Akihabara,Craft Beer Bar IBREW,Beer Bar,35.697896,139.777132
116,&And Hostel Akihabara,Shinpuku Saikan (新福菜館),Ramen Restaurant,35.700047,139.77634
117,&And Hostel Akihabara,Sushiya Ginzo (すし屋 銀蔵),Sushi Restaurant,35.697414,139.773269
118,&And Hostel Akihabara,FamilyMart (ファミリーマート),Convenience Store,35.70040074316624,139.7741550207138
119,&And Hostel Akihabara,BEEF KITCHEN STAND,Gastropub,35.698117645777465,139.77648746516283
120,&And Hostel Akihabara,DOLK TOKYO,Toy / Game Store,35.696217276351945,139.77365831960776
121,&And Hostel Akihabara,Akihabara Washington Hotel (秋葉原ワシントンホテル),Hotel,35.69729026029478,139.77380633354187
122,&And Hostel Akihabara,Echigoya Heiji (越後屋 平次),Diner,35.69893589042251,139.77445838196886
123,&And Hostel Akihabara,Motenashi Kuroki (饗 くろ㐂),Ramen Restaurant,35.698799,139.780138
124,&And Hostel Akihabara,Baskin-Robbins (サーティワンアイスクリーム),Ice Cream Shop,35.697963337253476,139.77378085255623
125,&And Hostel Akihabara,Hamakatsu (とんかつ濵かつ),Tonkatsu Restaurant,35.698562642173364,139.7744671809323
126,&And Hostel Akihabara,あるけみすと,Bar,35.69791214875236,139.77671183645725
127,&And Hostel Akihabara,Gindaco (築地銀だこ),Takoyaki Place,35.6982791804698,139.77479338645935
128,&And Hostel Akihabara,肴・酒 矢まと,Sake Bar,35.6975779862794,139.77345540949855
129,&And Hostel Akihabara,Via Inn Akihabara (ヴィアイン秋葉原),Bed & Breakfast,35.69654155883104,139.77233641109626
130,&And Hostel Akihabara,ラーメン食堂 粋な一生,Ramen Restaurant,35.701649,139.776863
131,&And Hostel Akihabara,Yakiton Genki (やきとん元気),Sake Bar,35.697733552725715,139.77740667115694
132,&And Hostel Akihabara,大衆イタリアン かね子,Italian Restaurant,35.69800088162436,139.77628250120657
133,&And Hostel Akihabara,Una-syo (うな匠),Unagi Restaurant,35.6987000565082,139.774494568387
134,&And Hostel Akihabara,TUCANO'S GRILL and BAR (トゥッカーノ グリル&バー),Steakhouse,35.69935406864438,139.77501501356585
135,&And Hostel Akihabara,順順餃子房,Dumpling Restaurant,35.700585,139.776664
136,&And Hostel Akihabara,立呑み居酒屋 殿,Sake Bar,35.69854927988312,139.77644562721252
137,&And Hostel Akihabara,Nihonshu Genka Sakagura (日本酒原価酒蔵),Sake Bar,35.69871002535727,139.77580390870568
138,&And Hostel Akihabara,Beard Papa's (ビアードパパの作りたて工房),Dessert Shop,35.698654403846774,139.77389951946782
139,&And Hostel Akihabara,焼肉韓菜 福寿,Korean Restaurant,35.69875,139.7723
140,&And Hostel Akihabara,Takakara (タカカラ あきば店),Sake Bar,35.69839678801025,139.77834826413948
141,&And Hostel Akihabara,Tankiyo (たん清),BBQ Joint,35.700219549101305,139.77466481061714
142,&And Hostel Akihabara,CoCo Ichibanya Halal Akihabara (CoCo壱番屋 ハラール秋葉原店),Japanese Curry Restaurant,35.699970486152,139.7754316895416
143,&And Hostel Akihabara,STORY CAFE,Café,35.698814674229844,139.77483552459336
144,&And Hostel Akihabara,富士そば 秋葉原店,Soba Restaurant,35.69811515975805,139.77552423267338
145,&And Hostel Akihabara,Grids Akihabara (グリッズ秋葉原),Hostel,35.69649301615894,139.78014707565308
146,&And Hostel Akihabara,俺の煮込屋 三蔵,Japanese Restaurant,35.696087385542405,139.7753461817317
147,&And Hostel Akihabara,ラーメン ワインバル食堂 nico,Wine Bar,35.69993462230332,139.77589187318338
148,&And Hostel Akihabara,Atariya Shokudo (あたりや食堂),Ramen Restaurant,35.696590337380584,139.7739269431944
149,&And Hostel Akihabara,GAME BAR A-Button,Gaming Cafe,35.701028277449666,139.77734274036158
150,&And Hostel Akihabara,JACK IN THE DONUTS,Donut Shop,35.69858209266989,139.7745107492995
151,&And Hostel Akihabara,ナツゲーミュージアム,Arcade,35.698431,139.776757
152,&And Hostel Akihabara,Akiba no Sakaba (アキバの酒場),Sake Bar,35.69648541009173,139.77359416254137
153,&And Hostel Akihabara,Manneken (マネケン),Dessert Shop,35.698284,139.77472
154,&And Hostel Akihabara,Live Coffee (ライブコーヒー),Coffee Shop,35.700511456238374,139.7763484545587
155,&And Hostel Akihabara,Kitade Shokudo (北出食堂),Taco Place,35.693537,139.778972
156,&And Hostel Akihabara,Indian Restaurant Aarti (インディアンレストラン アールティ),Indian Restaurant,35.697202,139.776193
157,&And Hostel Akihabara,Uogashi Nihon-ichi (魚がし日本一),Sushi Restaurant,35.697822,139.7752346
158,&And Hostel Akihabara,Nishiguchi Yakiton (西口やきとん),Sake Bar,35.6979974,139.7824946
159,&And Hostel Akihabara,GOHAN,Italian Restaurant,35.6977788,139.7741961
160,&And Hostel Akihabara,ジンギスカン 良夢,BBQ Joint,35.696206,139.776179
161,&And Hostel Akihabara,eggman tokyo east,Music Venue,35.693485291804855,139.77581094355986
162,&And Hostel Akihabara,Akiba Fukurou (アキバフクロウ),Pet Café,35.70071628709249,139.77475334149858
163,&And Hostel Akihabara,陳家私菜,Chinese Restaurant,35.69888309099883,139.77652609348297
164,&And Hostel Akihabara,Bar&Junk MIKAKU,Whisky Bar,35.700139946143175,139.77546351273247
165,&And Hostel Akihabara,居酒屋 村役場,Sake Bar,35.69767907728919,139.7743897140026
166,&And Hostel Akihabara,Meat Avantgarde (暴走熟成肉庫 肉アバンギャルド),BBQ Joint,35.697527,139.776695
167,&And Hostel Akihabara,吟くら あきば,Sake Bar,35.699533754036096,139.77580991488193
168,&And Hostel Akihabara,Ikebe Musical Instruments Store (イケベ楽器 リボレ秋葉原店),Music Store,35.69715,139.77628
169,&And Hostel Akihabara,朱雀門,BBQ Joint,35.698359368588406,139.7781003027607
170,&And Hostel Ueno,Iriya Entrance (JR上野駅 入谷口),Train Station,35.71433659363173,139.77862234812912
171,&And Hostel Ueno,Kotobukiyu (寿湯),Bath House,35.71233101297672,139.7828106011646
172,&And Hostel Ueno,Sanji (さんじ),Ramen Restaurant,35.710666690997925,139.7804578460185
173,&And Hostel Ueno,maruetsu (マルエツ 東上野店),Supermarket,35.71368626693697,139.78296130271394
174,&And Hostel Ueno,FamilyMart (ファミリーマート 上野駅入谷口店),Convenience Store,35.714034365653,139.77852115258779
175,&And Hostel Ueno,FamilyMart (ファミリーマート 東上野四丁目店),Convenience Store,35.71228167846643,139.77855285926665
176,&And Hostel Ueno,7-Eleven (セブンイレブン 台東東上野4丁目店),Convenience Store,35.713550743398216,139.7791813835866
177,&And Hostel Ueno,My Curry Shokudo (マイカリー食堂),Japanese Curry Restaurant,35.712947,139.778371
178,&And Hostel Ueno,Lawson (ローソン 台東北上野一丁目店),Convenience Store,35.71616082650517,139.78120243865726
179,&And Hostel Ueno,Yayoi (やよい軒),Japanese Restaurant,35.71185927542115,139.77950875953016
180,&And Hostel Ueno,Caffè Veloce (カフェ・ベローチェ),Coffee Shop,35.711015536633276,139.78318870067596
181,&And Hostel Ueno,Halima Kebab Biryani (ハリマ ケバブ ビリヤニ),Halal Restaurant,35.71173413159982,139.78032225410604
182,&And Hostel Ueno,7-Eleven (セブンイレブン 台東東上野6丁目店),Convenience Store,35.713917,139.7831
183,&And Hostel Ueno,Jonathan's (ジョナサン 浅草稲荷町店),Restaurant,35.71080359480473,139.78590297679364
184,&And Hostel Ueno,Hidakaya (日高屋 稲荷町店),Chinese Restaurant,35.711357387033445,139.7825671714215
185,&And Hostel Ueno,Doutor Coffee Shop (ドトールコーヒーショップ 上野浅草通り店),Coffee Shop,35.71197063006878,139.7791869882831
186,&And Hostel Ueno,Ministop (ミニストップ 東上野6丁目店),Convenience Store,35.7113079,139.7837643
187,&And Hostel Ueno,Yoshinoya (吉野家 浅草通り稲荷町店),Donburi Restaurant,35.7112045,139.7821149
188,&And Hostel Ueno,晴々飯店,Chinese Restaurant,35.714626,139.779522
189,&And Hostel Ueno,FamilyMart (ファミリーマート 台東松が谷店),Convenience Store,35.71359498578448,139.78536665439606
190,&And Hostel Ueno,Okina-an (翁庵),Soba Restaurant,35.71187885593249,139.7786557674408
191,&And Hostel Ueno,らーめん 稲荷屋,Ramen Restaurant,35.71101108725951,139.78466522920354
192,&And Hostel Ueno,Natural Lawson (ナチュラルローソン 東上野五丁目店),Convenience Store,35.71149726809795,139.78132949599404
193,&And Hostel Ueno,上野ストアハウス,Theater,35.716328,139.78176
194,&And Hostel Ueno,Kappa Kawataro Statue (かっぱ河太郎像),Outdoor Sculpture,35.714321,139.788725
195,&And Hostel Ueno,7-Eleven (セブンイレブン 台東区役所前店),Convenience Store,35.71191336213383,139.77966011497455
196,&And Hostel Ueno,Ministop (ミニストップ 東上野2丁目店),Convenience Store,35.7092891,139.782176
197,&And Hostel Ueno,田窯,Arts & Crafts Store,35.71035871728762,139.7881734119958
198,&And Hostel Ueno,Yamato (支那そば 大和),Ramen Restaurant,35.71123344311794,139.78408690541983
199,&And Hostel Ueno,レストラン ベア,Yoshoku Restaurant,35.709507,139.78184
200,&And Hostel Ueno,Ueno Sutton Place Hotel (上野 サットンプレイスホテル),Hotel,35.71384329660004,139.7792401837357
201,&And Hostel Ueno,FamilyMart (ファミリーマート 東上野五丁目店),Convenience Store,35.711467061324434,139.7817878077713
202,&And Hostel Ueno,My Basket (まいばすけっと 合羽橋南店),Grocery Store,35.712545419799774,139.78709978671412
203,&And Hostel Ueno,Sukiya (すき家 稲荷町駅前店),Donburi Restaurant,35.711390483827245,139.7824640952593
204,&And Hostel Ueno,Lawson Store 100 (ローソンストア100 浅草通り店),Convenience Store,35.71049476156283,139.7872944566185
205,&And Hostel Ueno,喜多方食堂 麺や玄,Ramen Restaurant,35.71077870619511,139.7857952000053
206,&And Hostel Ueno,ROUTE BOOKS,Bookstore,35.71405667938566,139.78079617023468
207,&And Hostel Ueno,MOS Burger (モスバーガー 合羽橋店),Fast Food Restaurant,35.71041050520192,139.78798613906883
208,&And Hostel Ueno,風和里,Furniture / Home Store,35.713183231332245,139.78870420022736
209,&And Hostel Ueno,Kaming,Gay Bar,35.715481909994956,139.779498452482
210,&And Hostel Ueno,そば助 稲荷町本店,Soba Restaurant,35.711046,139.785101
211,&And Hostel Ueno,Hotel Mystays Ueno Inaricho (ホテルマイステイズ上野稲荷町),Hotel,35.71182213076653,139.7852416032117
212,&And Hostel Ueno,Kojo (古城),Café,35.711729,139.779009
213,&And Hostel Ueno,Seven-Eleven (セブンイレブン 台東東上野2丁目東店),Convenience Store,35.709291,139.780353
214,&And Hostel Ueno,Tsukuba Hotel (ツクバホテル),Hotel,35.71044789645319,139.78283110567037
215,&And Hostel Ueno,Hotel Mystays Ueno East (ホテルマイステイズ上野イースト),Bed & Breakfast,35.71245031825166,139.78200930722187
216,&And Hostel Ueno,古代檜風呂 上野日の出湯,Bath House,35.71059145683736,139.78414750478947
217,&And Hostel Ueno,はし藤本店,Arts & Crafts Store,35.71269783604607,139.78860422796723
218,&And Hostel Ueno,Up To You Coffee,Coffee Shop,35.714954,139.78618
219,&And Hostel Ueno,生パスタの店 エッコエッコ,Italian Restaurant,35.71429303059607,139.7799108910567
220,&And Hostel Ueno,Keep & Touch (キープアンドタッチ),American Restaurant,35.71509932950538,139.78015309196184
221,&And Hostel Ueno,麺屋天王 上野店,Ramen Restaurant,35.7141645424726,139.77957813100477
222,&And Hostel Ueno,Lawson (ローソン 台東元浅草四丁目店),Convenience Store,35.710396125051744,139.78801279048093
223,&And Hostel Ueno,itonowa,Café,35.71247776331464,139.78613913059235
224,&And Hostel Ueno,犬印鞄製作所 合羽橋道具街店,Luggage Store,35.713007840538744,139.788675105171
225,&And Hostel Ueno,門前そば 筑波,Noodle House,35.713312359963545,139.7852545802671
226,&And Hostel Ueno,下谷神社前交差点,Intersection,35.7115854440958,139.78138377231562
227,&And Hostel Ueno,たぬき堂,Men's Store,35.71167527945118,139.7801325548488
228,&And Hostel Ueno,稲荷町食堂,Japanese Restaurant,35.711341028520934,139.78230115592837
229,&And Hostel Ueno,上野学園 石橋メモリアルホール,Concert Hall,35.7152829971314,139.7822106862696
230,&And Hostel Ueno,一真亭,Ramen Restaurant,35.7105826249504,139.78096170881398
231,&And Hostel Ueno,Makino (ふぐ牧野),Nabe Restaurant,35.715149924323,139.78600770235062
232,&And Hostel Ueno,菊屋橋公園,Park,35.708997835341805,139.7867476642275
233,&And Hostel Ueno,らーめん花の華,Ramen Restaurant,35.71212545789987,139.77872846831235
234,&And Hostel Ueno,インドレストラン＆バー シトル,Indian Restaurant,35.71116050070017,139.78370262749235
235,&And Hostel Ueno,Oak Hotel (オークホテル),Hotel,35.71138,139.78462
236,&And Hostel Ueno,松月庵,Japanese Restaurant,35.714872,139.78687
237,&And Hostel Ueno,Sui-Sui (純米酒専門 粋酔),Japanese Restaurant,35.71140581171034,139.78120030870502
238,&And Hostel Ueno,And Hostel Ueno,Hostel,35.712686,139.78372
239,&And Hostel Ueno,Bouldering Gym granny (ボルダリングジムグラニー),Climbing Gym,35.71230918733382,139.78401957749531
240,&And Hostel Ueno,UPC RIDE ON,Motorcycle Shop,35.715939,139.78076
241,&And Hostel Ueno,New Izu Hotel (NEW伊豆ホテル),Motel,35.710109592414796,139.77922184622602
242,&And Hostel Ueno,Kitaueno Toll Gate (北上野本線料金所),Toll Booth,35.71508854744398,139.78015452394732
243,&And Hostel Ueno,Didot,Italian Restaurant,35.711887,139.778701
244,&And Hostel Ueno,Vegetable Corporation,Coffee Shop,35.70878,139.78447
245,&And Hostel Ueno,喫茶&洋食 ケント,Café,35.715448277408115,139.78354945778844
246,&And Hostel Ueno,柔,Gay Bar,35.715382,139.779203
247,&And Hostel Ueno,手打蕎麦 義,Soba Restaurant,35.71538117262779,139.7841270559819
248,&And Hostel Ueno,かっぱ通り商和会,Shopping Mall,35.71544,139.78421
249,&And Hostel Ueno,高はし,Japanese Restaurant,35.71411642511075,139.7829836026129
250,&And Hostel Ueno,はるまげ堂,Record Shop,35.710333,139.782575
251,&And Hostel Ueno,村上スッポン本舗,Japanese Restaurant,35.71210354904844,139.77924381485258
252,&And Hostel-Asakusa North-,Lawson (ローソン 南千住三丁目店),Convenience Store,35.72891648568609,139.8026637497897
253,&And Hostel-Asakusa North-,Hotel Maruchu Centro (ホテル丸忠CENTRO),Hotel,35.73051447804392,139.79900866308748
254,&And Hostel-Asakusa North-,湯どんぶり栄湯,Bath House,35.72536448719962,139.7987327275207
255,&And Hostel-Asakusa North-,Café Bach (自家焙煎珈琲屋 カフェ・バッハ),Coffee Shop,35.7267805230493,139.800377455186
256,&And Hostel-Asakusa North-,7-Eleven (セブンイレブン 台東日本堤店),Convenience Store,35.726837738083944,139.79531919105477
257,&And Hostel-Asakusa North-,Hotel Juyoh (ホテル寿陽),Hotel,35.7267106,139.8007803
258,&And Hostel-Asakusa North-,7-Eleven (セブンイレブン 台東清川2丁目店),Convenience Store,35.72870787655478,139.80254888534546
259,&And Hostel-Asakusa North-,Maruchiba (丸千葉),Sake Bar,35.725959,139.800331
260,&And Hostel-Asakusa North-,Otsuboya (大坪屋),Sake Bar,35.731913942527974,139.79835848201046
261,&And Hostel-Asakusa North-,Hotel Maruchu Classico (ホテル丸忠CLASSICO),Motel,35.72898648452622,139.80122989063617
262,&And Hostel-Asakusa North-,土手の伊勢屋,Tempura Restaurant,35.72499945810375,139.79702655177107
263,&And Hostel-Asakusa North-,7-Eleven (セブンイレブン 台東日本堤2丁目店),Convenience Store,35.72882728490275,139.79933559894562
264,&And Hostel-Asakusa North-,Obana (尾花),Unagi Restaurant,35.73164,139.79689
265,&And Hostel-Asakusa North-,清川二丁目バス停,Bus Stop,35.725884109410146,139.8008669337353
266,&And Hostel-Asakusa North-,あしたのジョー立つんだ像,Outdoor Sculpture,35.7254289,139.7967392
267,&And Hostel-Asakusa North-,FamilyMart (ファミリーマート 南千住五丁目店),Convenience Store,35.73123550415039,139.79554748535156
268,&And Hostel-Asakusa North-,My Basket (まいばすけっと 日本堤1丁目店),Grocery Store,35.726873,139.8001322
269,&And Hostel-Asakusa North-,いろは会 商店街 ショップメイト,Shopping Mall,35.7280439496929,139.7984400185243
270,&And Hostel-Asakusa North-,FamilyMart (ファミリーマート 吉のや日本堤店),Convenience Store,35.7249417612161,139.7983273753267
271,&And Hostel-Asakusa North-,Hotel New Koyo (ホテルニュー紅陽),Hotel,35.7282378,139.7984878
272,&And Hostel-Asakusa North-,Lawson Store 100 (ローソンストア100 台東清川二丁目店),Convenience Store,35.7263953,139.8020154
273,&And Hostel-Asakusa North-,玉姫公園,Park,35.7272678,139.8023371
274,&And Hostel-Asakusa North-,Hotel Accela (ホテルアクセラ),Hotel,35.72768700899291,139.8000004248583
275,&And Hostel-Asakusa North-,見返り柳,Tree,35.7244599,139.7972307
276,&And Hostel-Asakusa North-,東浅草二丁目 交差点,Intersection,35.726188,139.800843
277,&And Hostel-Asakusa North-,Fukudaya Hotel (ビジネスホテル福田屋),Bed & Breakfast,35.72592227864179,139.80161492849942
278,&And Hostel-Asakusa North-,活魚料理 光,Sushi Restaurant,35.726398,139.802529
279,&And Hostel-Asakusa North-,Kangaroo Hotel (カンガルーホテル),Hostel,35.7264534,139.7998098
280,&And Hostel-Asakusa North-,Palace Japan (パレスジャパン),Hotel,35.7283383,139.7999734
281,&And Hostel-Asakusa North-,My Basket (まいばすけっと 南千住駅南店),Grocery Store,35.73044506803699,139.79868011104386
282,&And Hostel-Asakusa North-,Sakuranabe Nakae (桜なべ 中江),Nabe Restaurant,35.725109,139.797049
283,&And Hostel-Asakusa North-,会津屋本店 AIZUYA-INN,Hostel,35.727422846234184,139.80108102352767
284,&And Hostel-Asakusa North-,Andon Ryokan (行燈旅館),Hotel,35.728385037512346,139.79554265845167
285,&And Hostel-Asakusa North-,Enshuya-Honten Takao (魚料理処 遠州屋本店 高尾),Sake Bar,35.726026,139.8011405
286,&And Hostel-Asakusa North-,ポプラ 清川店,Convenience Store,35.726573,139.800879
287,&And Hostel-Asakusa North-,清川一丁目バス停,Bus Stop,35.726242,139.802209
288,1night1980hostel Tokyo,Inageya (いなげや 入谷店),Supermarket,35.72113015072659,139.78720972025252
289,1night1980hostel Tokyo,Lawson (ローソン 東日暮里一丁目店),Convenience Store,35.72769910144094,139.7877868195792
290,1night1980hostel Tokyo,Banninriki (油そば専門店 万人力),Ramen Restaurant,35.72128444887125,139.78639159351587
291,1night1980hostel Tokyo,Sukiya (すき家 台東下谷店),Donburi Restaurant,35.72685533339934,139.78899278345074
292,1night1980hostel Tokyo,Ministop (ミニストップ 下谷店),Convenience Store,35.722866,139.785272
293,1night1980hostel Tokyo,7-Eleven (セブンイレブン 台東下谷3丁目店),Convenience Store,35.72683230191627,139.78827090830845
294,1night1980hostel Tokyo,Gouter Le Ble (グーテ・ルブレ),Bakery,35.721204,139.785561
295,1night1980hostel Tokyo,Ministop (ミニストップ 入谷2丁目店),Convenience Store,35.7223717,139.789133
296,1night1980hostel Tokyo,My Basket (まいばすけっと 竜泉1丁目店),Grocery Store,35.724520505802396,139.78935027109733
297,1night1980hostel Tokyo,割烹 さいとう,Sake Bar,35.72152502230135,139.78428882742043
298,1night1980hostel Tokyo,7-Eleven (セブンイレブン 東日暮里4丁目東店),Convenience Store,35.72547889661289,139.78176419520096
299,1night1980hostel Tokyo,かがやき,Shabu-Shabu Restaurant,35.72644328176714,139.78934357954617
300,1night1980hostel Tokyo,My Basket (まいばすけっと 台東下谷3丁目店),Grocery Store,35.72726104270002,139.78936442548223
301,1night1980hostel Tokyo,Vessel Inn Ueno Iriya Ekimae (ベッセルイン上野入谷駅前),Bed & Breakfast,35.72149056773006,139.78603047625248
302,1night1980hostel Tokyo,ガスト 台東根岸店,Restaurant,35.725518838492,139.78568511080994
303,1night1980hostel Tokyo,山田屋,Soba Restaurant,35.72362388832932,139.79160748119244
304,1night1980hostel Tokyo,1980 Yen Hotel (1泊1980円ホテル),Hostel,35.724397621758825,139.78719638762945
305,1night1980hostel Tokyo,鷲神社前交差点,Intersection,35.72267595070697,139.79101743373172
306,1night1980hostel Tokyo,くいしんぼ 入谷店,Steakhouse,35.72129122404679,139.78551185423174
307,1night1980hostel Tokyo,Guest House toco. (ゲストハウス toco.),Hostel,35.722024320528774,139.78394346058403
308,1night1980hostel Tokyo,iriya plus café (イリヤプラスカフェ),Café,35.721263694678036,139.7842076306104
309,1night1980hostel Tokyo,香味屋,Yoshoku Restaurant,35.724089819746624,139.78372839064465
310,1night1980hostel Tokyo,Lawson (ローソン 台東根岸店),Convenience Store,35.726972,139.784434
311,1night1980hostel Tokyo,My Basket (まいばすけっと 下谷3丁目店),Grocery Store,35.7243712722654,139.7869863263893
312,1night1980hostel Tokyo,The Edo Sakura (江戸さくら),Hotel,35.72351952998939,139.78534351591304
313,1night1980hostel Tokyo,肉のえびすや,Deli / Bodega,35.72206802223842,139.7826989910006
314,1night1980hostel Tokyo,富久の湯,Bath House,35.72278012551453,139.79058872972846
315,1night1980hostel Tokyo,Bakpak Tokyo Hostel,Hostel,35.723546416532145,139.7914104137101
316,1night1980hostel Tokyo,根岸四丁目 交差点,Intersection,35.72477,139.781903
317,1night1980hostel Tokyo,酒処 佗助,Sake Bar,35.72124480204233,139.78658880097174
318,1night1980hostel Tokyo,王将,Sake Bar,35.720615,139.784587
319,328 Hostel & Lounge,コンちゃん,Outdoor Sculpture,35.550293,139.74704
320,328 Hostel & Lounge,Tsuruha Drug (ツルハドラッグ 穴守稲荷店),Drugstore,35.550568108563375,139.74742243875025
321,328 Hostel & Lounge,Hotel JAL City Haneda Tokyo (ホテルJALシティ羽田東京),Hotel,35.551484421206325,139.74819857478803
322,328 Hostel & Lounge,7-Eleven (セブンイレブン 大田区羽田店),Convenience Store,35.548171316858685,139.74770342542354
323,328 Hostel & Lounge,Gusto (ガスト 本羽田店),Restaurant,35.54895745625197,139.7406381368637
324,328 Hostel & Lounge,FamilyMart (ファミリーマート 羽田六丁目店),Convenience Store,35.54790098168469,139.74846576594825
325,328 Hostel & Lounge,Ganso New Tantanmen Honpo (元祖ニュータンタンメン本舗),Ramen Restaurant,35.551869,139.746258
326,328 Hostel & Lounge,Platform 1 (1番線ホーム),Platform,35.550210084539515,139.74738121032715
327,328 Hostel & Lounge,羽田旭町交差点,Intersection,35.55129972821219,139.74852882437813
328,328 Hostel & Lounge,Hotel Mystays Haneda (ホテルマイステイズ羽田),Hotel,35.55109465747295,139.7491700163792
329,328 Hostel & Lounge,7-Eleven (セブンイレブン 大田区羽田1丁目店),Convenience Store,35.55058829365143,139.74441867474064
330,328 Hostel & Lounge,Sukiya (すき家 環八羽田店),Donburi Restaurant,35.55133554135646,139.74777375878884
331,328 Hostel & Lounge,FamilyMart (ファミリーマート 羽田二丁目店),Convenience Store,35.54821110744606,139.7412121295929
332,328 Hostel & Lounge,伝丸 環八羽田店,Ramen Restaurant,35.55136804155006,139.74791059286787
333,328 Hostel & Lounge,Beagle Tokyo Hostel and Apartments (ビーグル東京ホステル&アパートメント),Hostel,35.55044642421507,139.74092955041309
334,328 Hostel & Lounge,ゆで太郎 大鳥居店,Soba Restaurant,35.549264803234315,139.74094728536792
335,328 Hostel & Lounge,空港入口バス停,Bus Stop,35.547256335519215,139.75048677201687
336,328 Hostel & Lounge,FamilyMart (ファミリーマート 羽田四丁目店),Convenience Store,35.551442420166126,139.74817623087523
337,328 Hostel & Lounge,ホテルJALシティ羽田 東京 WEST WING,Hotel,35.551759768026564,139.74694998810853
338,328 Hostel & Lounge,Lawson (ローソン 穴守稲荷店),Convenience Store,35.55047183337009,139.74751678392747
339,328 Hostel & Lounge,miniピアゴ 羽田1丁目店,Supermarket,35.54930051518308,139.74447356426106
340,328 Hostel & Lounge,Haneda 2-chome Intersection (羽田二丁目交差点),Intersection,35.549017347982826,139.74095248370298
341,328 Hostel & Lounge,Sato (中華そば さとう),Ramen Restaurant,35.54863229344493,139.74597841501236
342,328 Hostel & Lounge,My Basket (まいばすけっと 穴守稲荷店),Grocery Store,35.549283,139.746789
343,328 Hostel & Lounge,7-Eleven (セブンイレブン 京急ST穴守稲荷店),Convenience Store,35.55032714534974,139.7471330492241
344,328 Hostel & Lounge,ローソン 羽田四丁目店,Convenience Store,35.549941177233386,139.74545160467878
345,328 Hostel & Lounge,弁天橋バス停,Bus Stop,35.547886152759716,139.74867449257331
346,328 Hostel & Lounge,鉄板ジョニー,Sake Bar,35.55026,139.74098
347,328 Hostel & Lounge,四川食府,Chinese Restaurant,35.5504132070141,139.74730641110926
348,328 Hostel & Lounge,羽田第二水門,Canal Lock,35.54513763820697,139.7420767498812
349,328 Hostel & Lounge,まみーでりか 羽田店,Deli / Bodega,35.550918,139.74969
350,328 Hostel & Lounge,GOOD MORNING ラーメンショップ,Ramen Restaurant,35.552021648188315,139.74421469794402
351,328 Hostel & Lounge,TRAVEL CAFE,Café,35.55113924772337,139.7490844674158
352,328 Hostel & Lounge,ラーメン紋蔵,Ramen Restaurant,35.55111645256074,139.74883054734627
353,328 Hostel & Lounge,Mizuho Bank ATM (みずほ銀行  穴守稲荷駅前出張所),ATM,35.55036972585482,139.74735508703415
354,328 Hostel & Lounge,Platform 2 (2番線ホーム),Platform,35.550175168336715,139.74740266799927
355,328 Hostel & Lounge,羽田の渡し跡碑,Historic Site,35.545024701257496,139.74295914471497
356,328 Hostel & Lounge,BMW MOTORRAD HANEDA,Motorcycle Shop,35.55209536311137,139.74314470263266
357,328 Hostel & Lounge,やきとり倶楽部 羽田店,Sake Bar,35.550223,139.747416
358,328 Hostel & Lounge,ホテル JAL CITY バス乗り場,Bus Station,35.551771,139.74839
359,328 Hostel & Lounge,焼肉レストラン 東 羽田店,BBQ Joint,35.5496817883102,139.74662641203815
360,328 Hostel & Lounge,キッチン CIEL,Diner,35.55082016581109,139.74790888033712
361,328 Hostel & Lounge,Hotel Haneda Inn (ホテル羽田イン),Hotel,35.5521981533641,139.74371603072797
362,328 Hostel & Lounge,穴守稲荷のひもの屋,Japanese Restaurant,35.548912,139.746808
363,328 Hostel & Lounge,食通 ゆたか,Japanese Restaurant,35.54830276469115,139.7473704814911
364,328 Hostel & Lounge,Swan Cafe & Bakery 羽田クロノゲート店,Café,35.551578317290534,139.74883859780562
365,328 Hostel & Lounge,とりいち 羽田店,Japanese Restaurant,35.5517044628056,139.74602047233935
366,328 Hostel & Lounge,さぬきや,Udon Restaurant,35.550391,139.747001
367,328 Hostel & Lounge,Theatel Haneda (シアテル羽田),Hotel,35.547937,139.748546
368,328 Hostel & Lounge,ビジネスホテル梅月,Bed & Breakfast,35.55043267497493,139.7484916448593
369,328 Hostel & Lounge,大師橋下バス停,Bus Stop,35.546302,139.741226
370,328 Hostel & Lounge,田毎,Japanese Restaurant,35.55115572175092,139.74195199152322
371,328 Hostel & Lounge,九重,Japanese Restaurant,35.551334381103516,139.7480010986328
372,328 Hostel & Lounge,Cafe & Dining Haruhoro,Café,35.551666,139.74805
373,328 Hostel & Lounge,羽田富士塚,Mountain,35.546867981107766,139.74057561018233
374,328 Hostel & Lounge,Coffee Olive,Café,35.550385850170294,139.74727299843497
375,328 Hostel & Lounge,安藤食品,Butcher,35.548927,139.741787
376,328 Hostel & Lounge,よし坊,Outdoor Sculpture,35.54774845499072,139.740868806839
377,328 Hostel & Lounge,羽田 かめだや,Boat or Ferry,35.54550280680067,139.74258810281754
378,328 Hostel & Lounge,ラーメン 香味,Ramen Restaurant,35.552112994595305,139.74454879760742
379,328 Hostel & Lounge,割烹 旭,Japanese Restaurant,35.55059852627012,139.74827706813812
380,328 Hostel & Lounge,みさきや,Japanese Restaurant,35.549952577186446,139.74591672420502
381,328 Hostel & Lounge,ゆで太郎 羽田店,Soba Restaurant,35.55206542962861,139.74414921768343
382,Ace Inn Shinjuku,FamilyMart (ファミリーマート),Convenience Store,35.692365080941435,139.72267270088196
383,Ace Inn Shinjuku,FamilyMart (ファミリーマート),Convenience Store,35.69388666926065,139.72893834114072
384,Ace Inn Shinjuku,Starbucks,Coffee Shop,35.693950607529075,139.72897786743079
385,Ace Inn Shinjuku,Ikinari Steak (いきなり!ステーキ),Steakhouse,35.692978,139.721317
386,Ace Inn Shinjuku,Lawson (ローソン 新宿荒木町店),Convenience Store,35.69172789469843,139.72340470298812
387,Ace Inn Shinjuku,Hiromiya (ヒロミヤ),BBQ Joint,35.69324750449661,139.7198382560905
388,Ace Inn Shinjuku,7-Eleven (セブンイレブン 防衛省店),Convenience Store,35.694527859610176,139.72849682939957
389,Ace Inn Shinjuku,Hidakaya (日高屋 曙橋店),Chinese Restaurant,35.69308081741666,139.721199524854
390,Ace Inn Shinjuku,Shinjuku Historical Museum (新宿歴史博物館),History Museum,35.69027527943219,139.72549656929806
391,Ace Inn Shinjuku,Ichijoryu Ganko Ramen Sohonke (一条流がんこラーメン総本家),Ramen Restaurant,35.68931268788136,139.72175491052127
392,Ace Inn Shinjuku,BETA CLIMBING GYM,Climbing Gym,35.69236936961154,139.72223113627243
393,Ace Inn Shinjuku,Santoku (三徳 河田店),Supermarket,35.69631775268467,139.7218514158364
394,Ace Inn Shinjuku,Haruichi (濃厚鶏そば 晴壱),Ramen Restaurant,35.69211490014907,139.72069587821565
395,Ace Inn Shinjuku,Toka (鯛塩そば 灯花),Ramen Restaurant,35.690911,139.721704
396,Ace Inn Shinjuku,7-Eleven (セブンイレブン 新宿曙橋通り店),Convenience Store,35.69308227683619,139.72117686267762
397,Ace Inn Shinjuku,7-Eleven (セブンイレブン 新宿曙橋駅西店),Convenience Store,35.691895975584146,139.72008524609944
398,Ace Inn Shinjuku,Lawson (ローソン 市谷薬王寺町店),Convenience Store,35.696420134045105,139.7253001957183
399,Ace Inn Shinjuku,ローソン 新宿曙橋店,Convenience Store,35.692577,139.72282
400,Ace Inn Shinjuku,Lawson Store 100 (ローソンストア100 新宿住吉町店),Convenience Store,35.69320168052504,139.72116010088052
401,Ace Inn Shinjuku,Sukiya (すき家 曙橋店),Donburi Restaurant,35.693708,139.721085
402,Ace Inn Shinjuku,FamilyMart (ファミリーマート 四谷舟町店),Convenience Store,35.68957700242135,139.72110465673143
403,Ace Inn Shinjuku,Marumugi (地ビールバー まる麦),Beer Bar,35.68891926837308,139.7217951062216
404,Ace Inn Shinjuku,新潟ラーメン こばやし,Ramen Restaurant,35.69209345684895,139.7205889588827
405,Ace Inn Shinjuku,Ristorante Al Faro (リストランテ アル・ファーロ),Italian Restaurant,35.69542129836863,139.72436249256134
406,Ace Inn Shinjuku,ビア エトセトラ,Bar,35.68933424334707,139.72229533125153
407,Ace Inn Shinjuku,Tanyaki Shinobu (たん焼 忍),BBQ Joint,35.68836491878476,139.7258886694908
408,Ace Inn Shinjuku,My Basket (まいばすけっと 新宿住吉町店),Grocery Store,35.6920557,139.7196787
409,Ace Inn Shinjuku,My Basket (まいばすけっと 市谷薬王寺町店),Grocery Store,35.696123525651245,139.7253254055977
410,Ace Inn Shinjuku,番狂せ,Bar,35.688418947546026,139.72281222391535
411,Ace Inn Shinjuku,油そば専門店 GACHI,Ramen Restaurant,35.69265,139.722961
412,Ace Inn Shinjuku,麺屋 西川,Ramen Restaurant,35.69225428127701,139.7210537481289
413,Ace Inn Shinjuku,7-Eleven (セブンイレブン 新宿市谷台町店),Convenience Store,35.69320429381501,139.72010546073673
414,Ace Inn Shinjuku,Mitsuru (小麦と酵母 満),Bakery,35.692816,139.722778
415,Ace Inn Shinjuku,もつ焼き のんき 四谷店,Sake Bar,35.690397,139.721603
416,Ace Inn Shinjuku,Yakiniku Rashomon (焼肉処 羅生門),BBQ Joint,35.689534,139.720673
417,Ace Inn Shinjuku,Rokkan (荒木町 ろっかん),Sake Bar,35.68889047910571,139.72188949584958
418,Ace Inn Shinjuku,焼肉 名門,BBQ Joint,35.690155631684604,139.72165279502917
419,Ace Inn Shinjuku,Pattisserie LA VIE DOUCE,Dessert Shop,35.69178637035534,139.7195531158944
420,Ace Inn Shinjuku,和酒 月肴,Sake Bar,35.68984088034945,139.72175334014096
421,Ace Inn Shinjuku,キッチン どろまみれ,Sake Bar,35.69070949016734,139.7225345671177
422,Ace Inn Shinjuku,Wendy's First Kitchen (ファーストキッチン・ウェンディーズ),Fast Food Restaurant,35.693548,139.721107
423,Ace Inn Shinjuku,Tonkatsu Yamasaki (とんかつ 山さき),Tonkatsu Restaurant,35.69285050276218,139.7214644141258
424,Ace Inn Shinjuku,峨嵋山,Szechuan Restaurant,35.68987643662888,139.72138273992184
425,Ace Inn Shinjuku,OSTERIA Crocetta,Italian Restaurant,35.688371016799344,139.72563604512175
426,Ace Inn Shinjuku,いしやん,Japanese Restaurant,35.68925808079114,139.72067213702982
427,Ace Inn Shinjuku,Kitchen Taka (キッチン たか),Yoshoku Restaurant,35.68855248879155,139.7225115836737
428,Ace Inn Shinjuku,珈琲専門 猫廼舎,Café,35.68954518243739,139.72188440797456
429,Ace Inn Shinjuku,りんごの花,Sake Bar,35.690438847091755,139.72219878940342
430,Ace Inn Shinjuku,タシデレ Tashi Delek,Tibetan Restaurant,35.69154948125285,139.72696323493187
431,Ace Inn Shinjuku,アンパンマンショップ,Toy / Game Store,35.6892839328255,139.72077334213162
432,Ace Inn Shinjuku,東京堂 本店,Flower Shop,35.68813016434297,139.72333114302094
433,Ace Inn Shinjuku,赤身とホルモン焼 のんき,BBQ Joint,35.6905392,139.7216863
434,Ace Inn Shinjuku,福餃子,Dumpling Restaurant,35.692876478326156,139.72124981930915
435,Ace Inn Shinjuku,Billy The Kid 市ヶ谷店,Steakhouse,35.69205297341569,139.7259314833425
436,Ace Inn Shinjuku,homeri,Café,35.68846617359884,139.7234874914509
437,Ace Inn Shinjuku,居酒屋 純ちゃん,Sake Bar,35.68900130749775,139.72253485520847
438,Ace Inn Shinjuku,まことや,Sake Bar,35.68886433732701,139.72190022468567
439,Ace Inn Shinjuku,Tonkatsu Suzushin (とんかつ 鈴新),Tonkatsu Restaurant,35.689402,139.722494
440,Ace Inn Shinjuku,一心らーめん,Ramen Restaurant,35.69038451498254,139.72204482775857
441,Ace Inn Shinjuku,だあしゑんか,Czech Restaurant,35.689648,139.721689
442,Ace Inn Shinjuku,Bar C~Shell,Whisky Bar,35.68964096234882,139.72219660878181
443,Ace Inn Shinjuku,どろまみれ,Yakitori Restaurant,35.69069859800899,139.72253054380417
444,Ace Inn Shinjuku,GarNI (ワイン酒場 ガルニ(GarNI)),BBQ Joint,35.69629087703681,139.72286211099672
445,Ace Inn Shinjuku,まいばすけっと 曙橋駅前店,Grocery Store,35.693589029765285,139.72102372251513
446,Ace Inn Shinjuku,煙人,Sake Bar,35.68869398132204,139.7225508773272
447,Ace Inn Shinjuku,Vowz Bar (坊主バー),Bar,35.68927556007332,139.72252755581198
448,Ace Inn Shinjuku,Yakitori Ogawa (焼鳥おがわ),Japanese Restaurant,35.68961025165416,139.7222722314758
449,Ace Inn Shinjuku,旬菜料理  山灯,Japanese Restaurant,35.688636303620434,139.72158476776104
450,Ace Inn Shinjuku,酒肴タキギヤ,Sake Bar,35.68938717127301,139.72218856215477
451,Ace Inn Shinjuku,食楽知庵,Sake Bar,35.69388181997339,139.72112514497525
452,Ace Inn Shinjuku,どろ六,Sake Bar,35.692737,139.721267
453,Ace Inn Shinjuku,Beany Beans,Bar,35.692068819853795,139.7212752699852
454,Ace Inn Shinjuku,Ubuka (うぶか),Seafood Restaurant,35.68852166117733,139.72252678837145
455,Ace Inn Shinjuku,かわだ児童遊園,Park,35.695449616300394,139.72012996673584
488,Aizuya Inn,Lawson (ローソン 南千住三丁目店),Convenience Store,35.72891648568609,139.8026637497897
489,Aizuya Inn,Hotel Maruchu Centro (ホテル丸忠CENTRO),Hotel,35.73051447804392,139.79900866308748
490,Aizuya Inn,セブンイレブン 台東石浜店,Convenience Store,35.72647399816491,139.80467685496933
491,Aizuya Inn,湯どんぶり栄湯,Bath House,35.72536448719962,139.7987327275207
492,Aizuya Inn,Café Bach (自家焙煎珈琲屋 カフェ・バッハ),Coffee Shop,35.7267805230493,139.800377455186
493,Aizuya Inn,Hotel Juyoh (ホテル寿陽),Hotel,35.7267106,139.8007803
494,Aizuya Inn,7-Eleven (セブンイレブン 荒川南千住3丁目店),Convenience Store,35.731207926861245,139.8039076443866
495,Aizuya Inn,7-Eleven (セブンイレブン 台東清川2丁目店),Convenience Store,35.72870787655478,139.80254888534546
496,Aizuya Inn,Maruchiba (丸千葉),Sake Bar,35.725959,139.800331
497,Aizuya Inn,Hotel Maruchu Classico (ホテル丸忠CLASSICO),Motel,35.72898648452622,139.80122989063617
498,Aizuya Inn,土手の伊勢屋,Tempura Restaurant,35.72499945810375,139.79702655177107
499,Aizuya Inn,7-Eleven (セブンイレブン 台東日本堤2丁目店),Convenience Store,35.72882728490275,139.79933559894562
500,Aizuya Inn,清川二丁目バス停,Bus Stop,35.725884109410146,139.8008669337353
501,Aizuya Inn,あしたのジョー立つんだ像,Outdoor Sculpture,35.7254289,139.7967392
502,Aizuya Inn,My Basket (まいばすけっと 日本堤1丁目店),Grocery Store,35.726873,139.8001322
503,Aizuya Inn,いろは会 商店街 ショップメイト,Shopping Mall,35.7280439496929,139.7984400185243
504,Aizuya Inn,FamilyMart (ファミリーマート 吉のや日本堤店),Convenience Store,35.7249417612161,139.7983273753267
505,Aizuya Inn,Hotel New Koyo (ホテルニュー紅陽),Hotel,35.7282378,139.7984878
506,Aizuya Inn,Lawson Store 100 (ローソンストア100 台東清川二丁目店),Convenience Store,35.7263953,139.8020154
507,Aizuya Inn,玉姫公園,Park,35.7272678,139.8023371
508,Aizuya Inn,Hotel Accela (ホテルアクセラ),Hotel,35.72768700899291,139.8000004248583
509,Aizuya Inn,見返り柳,Tree,35.7244599,139.7972307
510,Aizuya Inn,東浅草二丁目 交差点,Intersection,35.726188,139.800843
511,Aizuya Inn,平賀源内の墓（総泉寺）,Historic Site,35.72789838328374,139.80557212675484
512,Aizuya Inn,日正カレー,Japanese Curry Restaurant,35.7268077841229,139.80496272834833
513,Aizuya Inn,Fukudaya Hotel (ビジネスホテル福田屋),Bed & Breakfast,35.72592227864179,139.80161492849942
514,Aizuya Inn,活魚料理 光,Sushi Restaurant,35.726398,139.802529
515,Aizuya Inn,Kangaroo Hotel (カンガルーホテル),Hostel,35.7264534,139.7998098
516,Aizuya Inn,Palace Japan (パレスジャパン),Hotel,35.7283383,139.7999734
517,Aizuya Inn,My Basket (まいばすけっと 南千住駅南店),Grocery Store,35.73044506803699,139.79868011104386
518,Aizuya Inn,Ministop (ミニストップ 橋場店),Convenience Store,35.726048,139.805565
519,Aizuya Inn,Sakuranabe Nakae (桜なべ 中江),Nabe Restaurant,35.725109,139.797049
520,Aizuya Inn,ニューダイカマ,Yoshoku Restaurant,35.72637401789069,139.80429839129164
521,Aizuya Inn,会津屋本店 AIZUYA-INN,Hostel,35.727422846234184,139.80108102352767
522,Aizuya Inn,清川二丁目 交差点,Intersection,35.72855511068888,139.80537325143814
523,Aizuya Inn,橋場交番前交差点,Intersection,35.72698240309372,139.80500268870844
524,Aizuya Inn,Enshuya-Honten Takao (魚料理処 遠州屋本店 高尾),Sake Bar,35.726026,139.8011405
525,Aizuya Inn,ポプラ 清川店,Convenience Store,35.726573,139.800879
526,Aizuya Inn,清川一丁目バス停,Bus Stop,35.726242,139.802209
527,Aizuya Inn,妙亀塚公園,Park,35.725495,139.805419
528,Akihabara Hotel 3000,Yodobashi-Akiba (ヨドバシカメラ マルチメディアAkiba),Electronics Store,35.6987131,139.7747612
529,Akihabara Hotel 3000,Shosen Book Tower (書泉ブックタワー),Bookstore,35.697324,139.775157
530,Akihabara Hotel 3000,Izakaya Wagaya (居酒屋 和が家),Sake Bar,35.696188057278185,139.77506428956985
531,Akihabara Hotel 3000,MAZERU (麺処 MAZERU),Ramen Restaurant,35.697924,139.774406
532,Akihabara Hotel 3000,HUB,Pub,35.697975,139.774209
533,Akihabara Hotel 3000,Active AKIBA Batting Center (アクティブAKIBAバッティングセンター),Athletics & Sports,35.69871524674489,139.77457483629485
534,Akihabara Hotel 3000,Tonbe (とんべェ),Sake Bar,35.698958,139.775153
535,Akihabara Hotel 3000,ライフ 神田和泉町店,Supermarket,35.69984975984281,139.77996544005146
536,Akihabara Hotel 3000,Tokyo Tonteki (東京トンテキ),Steakhouse,35.69865481171322,139.77464672142534
537,Akihabara Hotel 3000,Mita Seimenjo (三田製麺所),Ramen Restaurant,35.69869304210099,139.77448225021362
538,Akihabara Hotel 3000,Fukunoken (福の軒),Ramen Restaurant,35.69789366688633,139.7749376599205
539,Akihabara Hotel 3000,Aoshima Shokudo (青島食堂),Ramen Restaurant,35.697483688824704,139.77886967360973
540,Akihabara Hotel 3000,82 ALE HOUSE,Pub,35.69793214396875,139.7739636599719
541,Akihabara Hotel 3000,Go Go Curry (ゴーゴーカレー),Japanese Curry Restaurant,35.6976419280583,139.7746378183365
542,Akihabara Hotel 3000,Curry wa Nomimono (カレーは飲み物。),Japanese Curry Restaurant,35.700855,139.775837
543,Akihabara Hotel 3000,CoCo Ichibanya (CoCo壱番屋),Japanese Curry Restaurant,35.698447,139.775764
544,Akihabara Hotel 3000,Shimonya (四文屋),Sake Bar,35.69844656325336,139.7762417793274
545,Akihabara Hotel 3000,ヨドバシAkiba カメラコーナー,Camera Store,35.698501359086244,139.77463245391846
546,Akihabara Hotel 3000,なぜ蕎麦にラー油を入れるのか。,Soba Restaurant,35.700392,139.77582
547,Akihabara Hotel 3000,The French Toast Factory,Café,35.69868079250966,139.7746425271058
548,Akihabara Hotel 3000,Marufuku Coffee (丸福珈琲店),Café,35.69861025537081,139.7743035386268
549,Akihabara Hotel 3000,Hakata Furyu (博多風龍),Ramen Restaurant,35.698367,139.775223
550,Akihabara Hotel 3000,CLUB GOODMAN,Rock Club,35.697186,139.77647
551,Akihabara Hotel 3000,Yonpachi Gyojo (四十八漁場),Sake Bar,35.69835,139.7748
552,Akihabara Hotel 3000,Spaghetti Pancho (スパゲッティーのパンチョ),Yoshoku Restaurant,35.698566,139.775248
553,Akihabara Hotel 3000,Craft Beer Bar IBREW,Beer Bar,35.697896,139.777132
554,Akihabara Hotel 3000,Shinpuku Saikan (新福菜館),Ramen Restaurant,35.700047,139.77634
555,Akihabara Hotel 3000,BEEF KITCHEN STAND,Gastropub,35.698117645777465,139.77648746516283
556,Akihabara Hotel 3000,Echigoya Heiji (越後屋 平次),Diner,35.69893589042251,139.77445838196886
557,Akihabara Hotel 3000,Motenashi Kuroki (饗 くろ㐂),Ramen Restaurant,35.698799,139.780138
558,Akihabara Hotel 3000,Hamakatsu (とんかつ濵かつ),Tonkatsu Restaurant,35.698562642173364,139.7744671809323
559,Akihabara Hotel 3000,7-Eleven (セブンイレブン 浅草橋西口店),Convenience Store,35.69777964458709,139.7835298183512
560,Akihabara Hotel 3000,あるけみすと,Bar,35.69791214875236,139.77671183645725
561,Akihabara Hotel 3000,Gindaco (築地銀だこ),Takoyaki Place,35.6982791804698,139.77479338645935
562,Akihabara Hotel 3000,Hanamasa (肉のハナマサ),Butcher,35.69679870974277,139.78407371106206
563,Akihabara Hotel 3000,Yakiton Genki (やきとん元気),Sake Bar,35.697733552725715,139.77740667115694
564,Akihabara Hotel 3000,大衆イタリアン かね子,Italian Restaurant,35.69800088162436,139.77628250120657
565,Akihabara Hotel 3000,Una-syo (うな匠),Unagi Restaurant,35.6987000565082,139.774494568387
566,Akihabara Hotel 3000,Toyoko Inn Tokyo Kanda Akihabara (東横イン神田秋葉原),Bed & Breakfast,35.695160543150386,139.78318683423294
567,Akihabara Hotel 3000,TUCANO'S GRILL and BAR (トゥッカーノ グリル&バー),Steakhouse,35.69935406864438,139.77501501356585
568,Akihabara Hotel 3000,Tokyo-Link's HALL (東京リンクスホール),Concert Hall,35.69827517850467,139.78418526028483
569,Akihabara Hotel 3000,順順餃子房,Dumpling Restaurant,35.700585,139.776664
570,Akihabara Hotel 3000,立呑み居酒屋 殿,Sake Bar,35.69854927988312,139.77644562721252
571,Akihabara Hotel 3000,Nihonshu Genka Sakagura (日本酒原価酒蔵),Sake Bar,35.69871002535727,139.77580390870568
572,Akihabara Hotel 3000,Takakara (タカカラ あきば店),Sake Bar,35.69839678801025,139.77834826413948
573,Akihabara Hotel 3000,Caffe Veloce (カフェ・ベローチェ),Café,35.69781221142341,139.78458608090534
574,Akihabara Hotel 3000,CoCo Ichibanya Halal Akihabara (CoCo壱番屋 ハラール秋葉原店),Japanese Curry Restaurant,35.699970486152,139.7754316895416
575,Akihabara Hotel 3000,STORY CAFE,Café,35.698814674229844,139.77483552459336
576,Akihabara Hotel 3000,富士そば 秋葉原店,Soba Restaurant,35.69811515975805,139.77552423267338
577,Akihabara Hotel 3000,Grids Akihabara (グリッズ秋葉原),Hostel,35.69649301615894,139.78014707565308
578,Akihabara Hotel 3000,俺の煮込屋 三蔵,Japanese Restaurant,35.696087385542405,139.7753461817317
579,Akihabara Hotel 3000,ラーメン ワインバル食堂 nico,Wine Bar,35.69993462230332,139.77589187318338
580,Akihabara Hotel 3000,Gindaco Teppan Dojo (銀だこ鉄板道場),Takoyaki Place,35.697523,139.784773
581,Akihabara Hotel 3000,GAME BAR A-Button,Gaming Cafe,35.701028277449666,139.77734274036158
582,Akihabara Hotel 3000,My Basket (まいばすけっと 浅草橋1丁目店),Grocery Store,35.696805,139.783209
583,Akihabara Hotel 3000,Smile Thailand,Thai Restaurant,35.697553840298035,139.7841694990472
584,Akihabara Hotel 3000,JACK IN THE DONUTS,Donut Shop,35.69858209266989,139.7745107492995
585,Akihabara Hotel 3000,ナツゲーミュージアム,Arcade,35.698431,139.776757
586,Akihabara Hotel 3000,FamilyMart (ファミリーマート 浅草橋駅前店),Convenience Store,35.697634617634876,139.78311323544017
587,Akihabara Hotel 3000,Manneken (マネケン),Dessert Shop,35.698284,139.77472
588,Akihabara Hotel 3000,Live Coffee (ライブコーヒー),Coffee Shop,35.700511456238374,139.7763484545587
589,Akihabara Hotel 3000,Kitade Shokudo (北出食堂),Taco Place,35.693537,139.778972
590,Akihabara Hotel 3000,Indian Restaurant Aarti (インディアンレストラン アールティ),Indian Restaurant,35.697202,139.776193
591,Akihabara Hotel 3000,Uogashi Nihon-ichi (魚がし日本一),Sushi Restaurant,35.697822,139.7752346
592,Akihabara Hotel 3000,Nishiguchi Yakiton (西口やきとん),Sake Bar,35.6979974,139.7824946
593,Akihabara Hotel 3000,GOHAN,Italian Restaurant,35.6977788,139.7741961
594,Akihabara Hotel 3000,ジンギスカン 良夢,BBQ Joint,35.696206,139.776179
595,Akihabara Hotel 3000,陳家私菜,Chinese Restaurant,35.69888309099883,139.77652609348297
596,Akihabara Hotel 3000,Ichikatsu (いちかつ),Tonkatsu Restaurant,35.697472,139.78412
597,Akihabara Hotel 3000,Bar&Junk MIKAKU,Whisky Bar,35.700139946143175,139.77546351273247
598,Akihabara Hotel 3000,居酒屋 村役場,Sake Bar,35.69767907728919,139.7743897140026
599,Akihabara Hotel 3000,Hotel Mystays Asakusabashi (ホテルマイステイズ浅草橋),Bed & Breakfast,35.69712471652972,139.78358212000313
600,Akihabara Hotel 3000,Meat Avantgarde (暴走熟成肉庫 肉アバンギャルド),BBQ Joint,35.697527,139.776695
601,Akihabara Hotel 3000,吟くら あきば,Sake Bar,35.699533754036096,139.77580991488193
602,Akihabara Hotel 3000,麺や 来吉,Ramen Restaurant,35.69997541989064,139.78341803767808
603,Akihabara Hotel 3000,Ikebe Musical Instruments Store (イケベ楽器 リボレ秋葉原店),Music Store,35.69715,139.77628
604,Akihabara Hotel 3000,朱雀門,BBQ Joint,35.698359368588406,139.7781003027607
605,Akihabara Hotel 3000,イケベ楽器店 ドラムステーション リボレ秋葉原,Music Store,35.69725697747389,139.7760524379282
606,Akihabara Hotel 3000,秋葉原バルモンパカ,Bistro,35.697629730145955,139.77653592098403
607,Akihabara Hotel 3000,Oyaji (鉄火丼 おやじ),Donburi Restaurant,35.69630991549224,139.77747136747703
608,Akihabara Hotel 3000,Okame (しょっと おかめ),Bar,35.697997,139.777494
609,Akihabara Hotel 3000,Futaba (そば処 二葉),Soba Restaurant,35.700502012263904,139.77678651435355
610,Akihabara Hotel 3000,ヨドバシ酒店,Liquor Store,35.698714,139.774812
611,Akihabara Hotel 3000,WillyPeet(ウィリーピート) 東京店,Hobby Shop,35.70055407613092,139.77574072134604
612,Akihabara Hotel 3000,そば処 春日,Soba Restaurant,35.696118037965824,139.77886740221211
613,Akihabara Hotel 3000,串どころ 摸湖奈,Sake Bar,35.69775220953541,139.77683058322327
614,Akihabara Hotel 3000,Tonkatsu Imoya (とんかつ いもや),Tonkatsu Restaurant,35.694102,139.781556
615,Akihabara Hotel 3000,カナピナ 浅草橋店,Asian Restaurant,35.701621128317576,139.7811242752486
616,Akihabara Hotel 3000,Fujiyoshi (とんかつ藤芳),Tonkatsu Restaurant,35.701136304218075,139.78228331075096
617,Akihabara Hotel 3000,さけときどきぶた 秋葉原店,Sake Bar,35.69994837265836,139.7770821261308
618,Akihabara Hotel 3000,とり善,Sake Bar,35.6999517,139.7764151
619,Akihabara Hotel 3000,キッチン竹乃子,Japanese Restaurant,35.700951657214254,139.77663911586689
620,Akihabara Hotel 3000,中華料理 帆,Chinese Restaurant,35.693674833392315,139.78024471902174
621,Akihabara Hotel 3000,ワイン＆パスタ BAMBA-R（バンバール）,Italian Restaurant,35.70087122580895,139.77586090564728
622,Akihabara Hotel 3000,Cafe Damiano (カフェ ダミアーノ),Café,35.699672458539986,139.77655873190716
623,Akihabara Hotel 3000,野むら,Soba Restaurant,35.70108677955981,139.78083515797854
624,Akihabara Hotel 3000,割烹たなか,Japanese Restaurant,35.69766056223721,139.77462708950043
625,Akihabara Hotel 3000,Ichijiku (九 (いちじく)),Japanese Restaurant,35.70023131197088,139.77544404803203
626,Akihabara Hotel 3000,とんかつ 大泉,Tonkatsu Restaurant,35.7018235739632,139.78051486422362
627,Akihabara Hotel 3000,リラクゼーション&カフェ foredor(フォレドール),Massage Studio,35.69870720048723,139.7844748198986
628,Almond hostel & cafe Shibuya,OK Supermarket (オーケー 初台店),Supermarket,35.67415817585684,139.6862977500832
629,Almond hostel & cafe Shibuya,Spice Post (スパイスポスト),Japanese Curry Restaurant,35.66908958236448,139.68902934430406
630,Almond hostel & cafe Shibuya,365 Days (365日),Bakery,35.669289,139.68962
631,Almond hostel & cafe Shibuya,Little Nap COFFEE STAND,Coffee Shop,35.67208589746746,139.69065160508518
632,Almond hostel & cafe Shibuya,代々木公園 西門,Park,35.67061909045886,139.69131594378464
633,Almond hostel & cafe Shibuya,Gyoza no Fukuho (餃子の福包),Dumpling Restaurant,35.66933778902747,139.68903176486492
634,Almond hostel & cafe Shibuya,Irish Pub TULLAMORE,Irish Pub,35.66916682702808,139.68942924846718
635,Almond hostel & cafe Shibuya,almond hostel & cafe,Hostel,35.66995073660415,139.68748109982897
636,Almond hostel & cafe Shibuya,CACAO STORE,Chocolate Shop,35.66887557684367,139.6894897929771
637,Almond hostel & cafe Shibuya,ANYTIME FITNESS 元代々木店,Gym / Fitness Center,35.673927926749634,139.68674699430065
638,Almond hostel & cafe Shibuya,Uetomi (ウエトミ),Sake Bar,35.66846242450972,139.68755185604095
639,Almond hostel & cafe Shibuya,15°C,Bakery,35.66978224773145,139.68951077600013
640,Almond hostel & cafe Shibuya,NATA de Cristiano,Pastry Shop,35.667397651415556,139.69114783385353
641,Almond hostel & cafe Shibuya,Reikyo (麗郷),Taiwanese Restaurant,35.667254,139.69116
642,Almond hostel & cafe Shibuya,Little Nap COFFEE ROASTERS,Coffee Shop,35.667744,139.686077
643,Almond hostel & cafe Shibuya,Anda Gyoza (按田餃子),Dumpling Restaurant,35.67057135800788,139.6820746644411
644,Almond hostel & cafe Shibuya,PATH,Bistro,35.668504,139.689902
645,Almond hostel & cafe Shibuya,mimet,Café,35.668909525796444,139.69000571164284
646,Almond hostel & cafe Shibuya,Yoyogi Nishihara Park (代々木西原公園),Park,35.673409,139.684319
647,Almond hostel & cafe Shibuya,manatee,Café,35.66713319968057,139.69125866889954
648,Almond hostel & cafe Shibuya,せきぐち亭,Yoshoku Restaurant,35.66910805016124,139.68879979508384
649,Almond hostel & cafe Shibuya,Bien-Être Pâtisserie (パティスリー ビヤンネートル),Dessert Shop,35.66815406322494,139.68250406617037
650,Almond hostel & cafe Shibuya,Tonkatsu Takeshin (とんかつ武信),Tonkatsu Restaurant,35.6703189,139.6828013
651,Almond hostel & cafe Shibuya,大黒湯,Bath House,35.67085461802228,139.68303033968965
652,Almond hostel & cafe Shibuya,ARMS Park Side Burger Shop,Burger Joint,35.67242067657862,139.69104648082768
653,Almond hostel & cafe Shibuya,初台坂下交差点,Intersection,35.673815759612275,139.687695063014
654,Almond hostel & cafe Shibuya,Minimal,Chocolate Shop,35.66704274383018,139.6880290709265
655,Almond hostel & cafe Shibuya,Levain (ルヴァン),Bakery,35.66773,139.685788
656,Almond hostel & cafe Shibuya,haritts,Donut Shop,35.66931568415802,139.68206369231987
657,Almond hostel & cafe Shibuya,Sakeria SakeBozu (サケリア 酒坊主),Sake Bar,35.6673716074989,139.68972380425836
658,Almond hostel & cafe Shibuya,ル・キャバレー,French Restaurant,35.670070784621736,139.68525891181753
659,Almond hostel & cafe Shibuya,Menki Yashima (麺㐂 やしま),Udon Restaurant,35.66777013402222,139.69002351164818
660,Almond hostel & cafe Shibuya,tecona bagel works,Bagel Shop,35.668753,139.689065
661,Almond hostel & cafe Shibuya,Viva Banco (ビババンコ),Italian Restaurant,35.67045277961611,139.68374833885719
662,Almond hostel & cafe Shibuya,iL-CHIANTI,Italian Restaurant,35.66803860030779,139.6903034672141
663,Almond hostel & cafe Shibuya,Manpuku (まんぷく),BBQ Joint,35.670283,139.682194
664,Almond hostel & cafe Shibuya,mid.,Café,35.673291028788526,139.68744188547134
665,Almond hostel & cafe Shibuya,Yoyonam (ヨヨナム),Vietnamese Restaurant,35.671383100417714,139.69041377305984
666,Almond hostel & cafe Shibuya,初台坂下バス停,Bus Stop,35.67443977980013,139.68769838814592
667,Almond hostel & cafe Shibuya,Cristiano's,Portuguese Restaurant,35.668642544079276,139.68909580342728
668,Almond hostel & cafe Shibuya,Afterhours,Pastry Shop,35.66913468082662,139.69003673629183
669,Almond hostel & cafe Shibuya,Sio,French Restaurant,35.669524,139.68212
670,Almond hostel & cafe Shibuya,Gatemo Tabum (ガテモタブン),Himalayan Restaurant,35.668403169006474,139.68269701430162
671,Almond hostel & cafe Shibuya,LIFE,Italian Restaurant,35.66832283806828,139.69044357668363
672,Almond hostel & cafe Shibuya,炭火串焼 ふく,Yakitori Restaurant,35.6703375601093,139.6833440825751
673,Almond hostel & cafe Shibuya,朝日屋,Noodle House,35.671317503899346,139.68329605584475
674,Almond hostel & cafe Shibuya,Kakunoshin Rt (格之進Rt),BBQ Joint,35.668325608606246,139.6901595768605
675,Almond hostel & cafe Shibuya,Mi Choripan,Argentinian Restaurant,35.6678711,139.683522
676,Almond hostel & cafe Shibuya,ビストロとサカバ TAKE,Bistro,35.666966183728405,139.6912757922397
677,Almond hostel & cafe Shibuya,WE ARE THE FARM,Vegetarian / Vegan Restaurant,35.67112383934291,139.68290906881984
678,Almond hostel & cafe Shibuya,Harema (四季ごはん 晴れ間。),Japanese Restaurant,35.66917507672423,139.68557964791765
679,Almond hostel & cafe Shibuya,enboca,Italian Restaurant,35.67099319794411,139.6839219812442
680,Almond hostel & cafe Shibuya,block.fm,Music Venue,35.667175469056986,139.68923749744482
681,Almond hostel & cafe Shibuya,Ostü,Italian Restaurant,35.67044750431598,139.69056263566017
682,Almond hostel & cafe Shibuya,Mar De Cristiano (マル・デ・クリスチアノ),Portuguese Restaurant,35.669435662331416,139.68893253329563
683,Almond hostel & cafe Shibuya,代々木公園サービスセンター,Tourist Information Center,35.67179453111972,139.6916851401329
684,Almond hostel & cafe Shibuya,Betterave Bistro Jiro,Italian Restaurant,35.66811159846699,139.69096094369888
685,Almond hostel & cafe Shibuya,Bojun TOMIGAYA,Café,35.66740776268846,139.68820095062256
686,Almond hostel & cafe Shibuya,Koda (こうだ (甲田)),Diner,35.67413883752219,139.68662824441103
687,Almond hostel & cafe Shibuya,fun.ice!,Ice Cream Shop,35.67294,139.691199
688,Almond hostel & cafe Shibuya,BAR NAKAGAWA,Whisky Bar,35.67124396089697,139.6830341047506
689,Almond hostel & cafe Shibuya,ローソン 渋谷元代々木町店,Convenience Store,35.673518,139.68543
690,Almond hostel & cafe Shibuya,jeeten (ジーテン),Chinese Restaurant,35.670361030393764,139.6825700833278
691,Almond hostel & cafe Shibuya,Callas,Café,35.667823122510434,139.68753753164108
692,Almond hostel & cafe Shibuya,JENSEN (イエンセン),Bakery,35.670011533793506,139.6874841280657
693,Almond hostel & cafe Shibuya,Yoyogi-Uehara Yuu (代々木上原 ゆう),Japanese Restaurant,35.67065886555867,139.68208551406858
694,Almond hostel & cafe Shibuya,SABBATH Cafe Bar & Shisha Garden,Hookah Bar,35.67382886731121,139.6871366377748
695,Almond hostel & cafe Shibuya,Ao (青),Sake Bar,35.67112752329243,139.68302564004176
696,Almond hostel & cafe Shibuya,Ardoak (アルドアック),Spanish Restaurant,35.66842164341452,139.68741649599949
697,Almond hostel & cafe Shibuya,代々木神園町バス停,Bus Stop,35.673144704785074,139.69128948607957
698,Almond hostel & cafe Shibuya,Cafe & Wine DANCE,Café,35.672863961845884,139.69119429588318
699,Almond hostel & cafe Shibuya,Offf,Restaurant,35.671295,139.683202
700,Almond hostel & cafe Shibuya,皆月,Japanese Restaurant,35.67119053466365,139.68328446149826
701,Anne Hostel Asakusabashi,Ryogoku Kokugikan (両国国技館),Stadium,35.69689817401091,139.79349374771118
702,Anne Hostel Asakusabashi,Ryogoku EDO NOREN (両国 江戸NOREN),Shopping Mall,35.696275918380586,139.7921646623711
703,Anne Hostel Asakusabashi,Kyu-Yasuda Garden (旧安田庭園),Garden,35.6983511,139.7937567
704,Anne Hostel Asakusabashi,Komeda's Coffee (コメダ珈琲店),Café,35.697516,139.786645
705,Anne Hostel Asakusabashi,Shimojima (シモジマ 浅草橋本店),Paper / Office Supplies Store,35.69800492474925,139.78663436673799
706,Anne Hostel Asakusabashi,McDonald's (マクドナルド),Fast Food Restaurant,35.695759,139.791581
707,Anne Hostel Asakusabashi,Saizeriya (サイゼリヤ),Italian Restaurant,35.69565447853833,139.79269042611122
708,Anne Hostel Asakusabashi,Mizushin Saikan (水新菜館),Chinese Restaurant,35.69834220366753,139.78682406266927
709,Anne Hostel Asakusabashi,Tokyo Shoten (東京商店),Liquor Store,35.69627183229803,139.79236146468094
710,Anne Hostel Asakusabashi,KONCENT,Gift Shop,35.702854257204095,139.79044305363095
711,Anne Hostel Asakusabashi,キッチンセブン 街のハンバーグ屋さん 浅草橋店,Steakhouse,35.69741021387429,139.78580708444983
712,Anne Hostel Asakusabashi,鳥越神社,Shrine,35.702039,139.785541
713,Anne Hostel Asakusabashi,両国刀剣博物館,Museum,35.69889539117559,139.79360358547237
714,Anne Hostel Asakusabashi,EAST SIDE TOKYO 蔵前店,Flower Shop,35.7008690695213,139.78871931638534
715,Anne Hostel Asakusabashi,Ikinari Steak (いきなり!ステーキ),Steakhouse,35.69691080112525,139.7862470895052
716,Anne Hostel Asakusabashi,Tantan Tiger (タンタンタイガー),Noodle House,35.701890808051985,139.78737965226173
717,Anne Hostel Asakusabashi,Tokyo Meat Sakaba (東京MEAT酒場),Sake Bar,35.6974719,139.7854485
718,Anne Hostel Asakusabashi,Smile Thailand,Thai Restaurant,35.697553840298035,139.7841694990472
719,Anne Hostel Asakusabashi,丸亀製麺,Udon Restaurant,35.6957924,139.7925037
720,Anne Hostel Asakusabashi,居酒屋みかみ,Sake Bar,35.697144317292135,139.7853626310825
721,Anne Hostel Asakusabashi,KARATEZ (カラオケの鉄人),Karaoke Box,35.69569697882592,139.79311567804658
722,Anne Hostel Asakusabashi,NewDays 両国8号,Convenience Store,35.69598462317122,139.79197203860755
723,Anne Hostel Asakusabashi,ろく月,Ramen Restaurant,35.69889,139.78534
724,Anne Hostel Asakusabashi,Tendon Tenya (天丼てんや),Tempura Restaurant,35.695774,139.793069
725,Anne Hostel Asakusabashi,Ryogoku Terrace Cafe (両国テラスカフェ),Café,35.698413932897644,139.7943398049836
726,Anne Hostel Asakusabashi,Ootoya (大戸屋),Japanese Restaurant,35.69877661784853,139.7871368240644
727,Anne Hostel Asakusabashi,Yoshoku Daikichi (洋食 大吉),Yoshoku Restaurant,35.697847,139.788303
728,Anne Hostel Asakusabashi,FamilyMart (ファミリーマート 両国駅前通り店),Convenience Store,35.69515465238249,139.79203023559285
729,Anne Hostel Asakusabashi,JR両国駅 西口,Train Station,35.695936015520466,139.79270116020595
730,Anne Hostel Asakusabashi,日本焼肉党 浅草橋,BBQ Joint,35.69725577216038,139.78559778047565
731,Anne Hostel Asakusabashi,Phayao (パヤオ),Thai Restaurant,35.69730439798048,139.78500718157943
732,Anne Hostel Asakusabashi,Stone (ストーン),Yoshoku Restaurant,35.697208560766484,139.78557496959255
733,Anne Hostel Asakusabashi,FUJIMARU (フジマル 浅草橋店),Bistro,35.69555623864898,139.78642293015207
734,Anne Hostel Asakusabashi,ちゃんこ 霧島 両国本店,Japanese Restaurant,35.69567617259733,139.79193310851
735,Anne Hostel Asakusabashi,ブラッスリー ジョンティ,Brasserie,35.69887383361314,139.784814119339
736,Anne Hostel Asakusabashi,ぶたいちろう,Sake Bar,35.69732524952742,139.78562216571606
737,Anne Hostel Asakusabashi,馥香(フーシャン),Chinese Restaurant,35.69933100146381,139.78760604132316
738,Anne Hostel Asakusabashi,DIPIKA,Indian Restaurant,35.69574543288904,139.7921518211852
739,Anne Hostel Asakusabashi,江戸蕎麦手打處 あさだ,Soba Restaurant,35.69959922597898,139.78774806740597
740,Anne Hostel Asakusabashi,月島もんじゃ もへじ,Monjayaki Restaurant,35.6962706297527,139.79232730397197
741,Anne Hostel Asakusabashi,Daily's Muffin (デイリーズ・マフィン 蔵前店),Bakery,35.701988960504025,139.79008964197402
742,Anne Hostel Asakusabashi,SOL'S Coffee Roastery,Coffee Shop,35.70145755361229,139.78851476310174
743,Anne Hostel Asakusabashi,両国ステーションギャラリー,History Museum,35.69606,139.79324
744,Anne Hostel Asakusabashi,Beer bar&Cafe East 57,Beer Bar,35.69689711472645,139.78761607943565
745,Anne Hostel Asakusabashi,FamilyMart (ファミリーマート 両国駅西口店),Convenience Store,35.69574295962428,139.79274507319016
746,Anne Hostel Asakusabashi,食堂酒場Gracia（グラシア）,Yoshoku Restaurant,35.69975772875511,139.78605346118925
747,Anne Hostel Asakusabashi,PIZZERIA ENZO ゑんぞ,Pizza Place,35.69737551395355,139.78539400403199
748,Anne Hostel Asakusabashi,ちゃんこ道場 両国駅前店,Nabe Restaurant,35.6957306023775,139.79287551294695
749,Anne Hostel Asakusabashi,ちゃんこ川崎,Nabe Restaurant,35.69536416258061,139.79133186491512
750,Anne Hostel Asakusabashi,ROJICA,Spanish Restaurant,35.69593101960154,139.78601574897766
751,Anne Hostel Asakusabashi,very berry soup,Soup Place,35.700095,139.787803
752,Anne Hostel Asakusabashi,PASTA&BAR DARK-HORSE,Bar,35.70030087432691,139.7877549034963
753,Anne Hostel Asakusabashi,Chicken Place (チキンプレイス(Chicken Place) 柳橋本店),Yakitori Restaurant,35.69781768187136,139.78765326930508
754,Anne Hostel Asakusabashi,KUHNS / クーンズ,Bar,35.69805929162614,139.78554392897135
755,Anne Hostel Asakusabashi,隅田川テラス 蔵前橋 左岸,Park,35.700334256622575,139.7939796415695
756,Anne Hostel Asakusabashi,江戸そば 炭火焼 元,Soba Restaurant,35.69577823671323,139.79291439
757,Anne Hostel Asakusabashi,中国料理 三国志,Chinese Restaurant,35.695739547639874,139.79270615422033
758,Anne Hostel Yokozuna,Ryogoku Kokugikan (両国国技館),Stadium,35.69689817401091,139.79349374771118
759,Anne Hostel Yokozuna,Edo-Tokyo Museum (江戸東京博物館),History Museum,35.696418001828135,139.7957682609558
760,Anne Hostel Yokozuna,Ryogoku EDO NOREN (両国 江戸NOREN),Shopping Mall,35.696275918380586,139.7921646623711
761,Anne Hostel Yokozuna,Kyu-Yasuda Garden (旧安田庭園),Garden,35.6983511,139.7937567
762,Anne Hostel Yokozuna,Yokoamicho Park (横網町公園),Park,35.69936392902409,139.7963798046112
763,Anne Hostel Yokozuna,文殊 両国駅前店,Soba Restaurant,35.69547130133415,139.79390004370353
764,Anne Hostel Yokozuna,Beer Club Popeye (麦酒倶楽部ポパイ),Beer Bar,35.695026,139.792692
765,Anne Hostel Yokozuna,両国湯屋 江戸遊,Spa,35.696943349327526,139.79834971935978
766,Anne Hostel Yokozuna,McDonald's (マクドナルド),Fast Food Restaurant,35.695759,139.791581
767,Anne Hostel Yokozuna,つけ麺屋 ごんろく 両国店,Ramen Restaurant,35.69511250421206,139.79755358053183
768,Anne Hostel Yokozuna,Sumida Hokusai Museum (すみだ北斎美術館),Art Museum,35.69636231963855,139.8005211353302
769,Anne Hostel Yokozuna,FamilyMart (ファミリーマート 墨田両国東口店),Convenience Store,35.69553946904496,139.7961847655053
770,Anne Hostel Yokozuna,Saizeriya (サイゼリヤ),Italian Restaurant,35.69565447853833,139.79269042611122
771,Anne Hostel Yokozuna,Dai-ichi Hotel Ryogoku (第一ホテル両国),Hotel,35.698309837036064,139.7970784715332
772,Anne Hostel Yokozuna,Anne Hostel Yokozuna (両国旅荘 庵),Hostel,35.69577414989944,139.79672865691137
773,Anne Hostel Yokozuna,FamilyMart (ファミリーマート 亀沢一丁目店),Convenience Store,35.695773200884034,139.79899987467954
774,Anne Hostel Yokozuna,Kakuya (かくや),Soba Restaurant,35.69556302597585,139.79458187396975
775,Anne Hostel Yokozuna,7-Eleven (セブンイレブン 墨田両国3丁目店),Convenience Store,35.69442452190959,139.79454228639185
776,Anne Hostel Yokozuna,Tokyo Shoten (東京商店),Liquor Store,35.69627183229803,139.79236146468094
777,Anne Hostel Yokozuna,両国八百八町 花の舞,Sake Bar,35.69583953141502,139.79774236679077
778,Anne Hostel Yokozuna,Sumo Museum (相撲博物館),Museum,35.696982095959065,139.79254264362834
779,Anne Hostel Yokozuna,7-Eleven (セブンイレブン 墨田両国2丁目店),Convenience Store,35.69405766913986,139.7922921180725
780,Anne Hostel Yokozuna,両国刀剣博物館,Museum,35.69889539117559,139.79360358547237
781,Anne Hostel Yokozuna,Ichikatsu (とんかつ いちかつ),Tonkatsu Restaurant,35.695623806122434,139.79409004611264
782,Anne Hostel Yokozuna,両国國技堂,Tea Room,35.6947125,139.7921448
783,Anne Hostel Yokozuna,7-Eleven (セブンイレブン 墨田千歳店),Convenience Store,35.69125795908521,139.79534799656022
784,Anne Hostel Yokozuna,スポーツクラブ ルネサンス 両国,Sports Club,35.69399922782728,139.79223480518283
785,Anne Hostel Yokozuna,小次郎 両国店,Chinese Restaurant,35.69566063061528,139.79413931875354
786,Anne Hostel Yokozuna,My Basket (まいばすけっと 両国横綱横丁店),Grocery Store,35.69462488858765,139.7939998253222
787,Anne Hostel Yokozuna,サンエトワール 両国店,Bakery,35.695666739388955,139.79745946565086
788,Anne Hostel Yokozuna,丸亀製麺,Udon Restaurant,35.6957924,139.7925037
789,Anne Hostel Yokozuna,Tonkatsu Hasegawa (とんかつ はせ川),Tonkatsu Restaurant,35.695078699221575,139.7939279881235
790,Anne Hostel Yokozuna,KARATEZ (カラオケの鉄人),Karaoke Box,35.69569697882592,139.79311567804658
791,Anne Hostel Yokozuna,Sakura Saryo (桜茶寮),Japanese Restaurant,35.69652026351211,139.79571775629543
792,Anne Hostel Yokozuna,Jonathan's (ジョナサン 両国店),Restaurant,35.69484482989324,139.80086688459068
793,Anne Hostel Yokozuna,Kameido Gyoza (亀戸ぎょうざ 両国店),Dumpling Restaurant,35.695003,139.797417
794,Anne Hostel Yokozuna,NewDays 両国8号,Convenience Store,35.69598462317122,139.79197203860755
795,Anne Hostel Yokozuna,両国SUNRIZE,Rock Club,35.6952589129636,139.79559708668472
796,Anne Hostel Yokozuna,博多ラーメン ガツン 両国店,Ramen Restaurant,35.69433012847888,139.79200566661746
797,Anne Hostel Yokozuna,MOS Burger (モスバーガー 両国店),Fast Food Restaurant,35.69443618743752,139.79426662253525
798,Anne Hostel Yokozuna,Tendon Tenya (天丼てんや),Tempura Restaurant,35.695774,139.793069
799,Anne Hostel Yokozuna,Ryogoku Terrace Cafe (両国テラスカフェ),Café,35.698413932897644,139.7943398049836
800,Anne Hostel Yokozuna,シアターＸ (カイ),Theater,35.694191781805465,139.7922916524546
801,Anne Hostel Yokozuna,ジャイプル,Indian Restaurant,35.69611506591709,139.79969918445443
802,Anne Hostel Yokozuna,FamilyMart (ファミリーマート 両国駅前通り店),Convenience Store,35.69515465238249,139.79203023559285
803,Anne Hostel Yokozuna,生鮮マルシェ,Grocery Store,35.696216518590056,139.80040326803083
804,Anne Hostel Yokozuna,JR両国駅 西口,Train Station,35.695936015520466,139.79270116020595
805,Anne Hostel Yokozuna,Yayoi (やよい軒),Japanese Restaurant,35.69451181336434,139.79397899112368
806,Anne Hostel Yokozuna,Lawson (ローソン 墨田緑一丁目店),Convenience Store,35.69464596439817,139.79854538337992
807,Anne Hostel Yokozuna,震災祈念堂 東京都慰霊堂,Memorial Site,35.69928052824498,139.79664656222417
808,Anne Hostel Yokozuna,ジンギスカン ゆきだるま 中野部屋一門 両国部屋,BBQ Joint,35.695083871224085,139.79414935037533
809,Anne Hostel Yokozuna,FamilyMart (ファミリーマート 両国亀沢店),Convenience Store,35.69840776758282,139.79720093714354
810,Anne Hostel Yokozuna,Torikizoku (鳥貴族 両国店),Sake Bar,35.69580530487227,139.79352156417823
811,Anne Hostel Yokozuna,元太丸 両国店,Sushi Restaurant,35.69566219954836,139.79409501519794
812,Anne Hostel Yokozuna,ちゃんこ江戸沢 両国新館,Japanese Restaurant,35.69570301145,139.79330468598647
813,Anne Hostel Yokozuna,Chanko Tomoegata (ちゃんこ巴潟),Nabe Restaurant,35.69474064088488,139.79253197477678
814,Anne Hostel Yokozuna,ちゃんこ 霧島 両国本店,Japanese Restaurant,35.69567617259733,139.79193310851
815,Anne Hostel Yokozuna,汁麺屋 胡座,Ramen Restaurant,35.69532982124293,139.79636703568704
816,Anne Hostel Yokozuna,DIPIKA,Indian Restaurant,35.69574543288904,139.7921518211852
817,Anne Hostel Yokozuna,NTTドコモ歴史展示スクエア,Museum,35.698100565839084,139.7957682609558
818,Anne Hostel Yokozuna,月島もんじゃ もへじ,Monjayaki Restaurant,35.6962706297527,139.79232730397197
819,Anne Hostel Yokozuna,両国 air studio,Indie Theater,35.69525443088287,139.7927594654533
820,Anne Hostel Yokozuna,両国ステーションギャラリー,History Museum,35.69606,139.79324
821,Anne Hostel Yokozuna,蕎肆 穂乃香,Soba Restaurant,35.69570839193271,139.79896988629488
822,Anne Hostel Yokozuna,FamilyMart (ファミリーマート 両国駅西口店),Convenience Store,35.69574295962428,139.79274507319016
823,Anne Hostel Yokozuna,元禄二八そば 玉屋,Soba Restaurant,35.694408961858024,139.7943929723127
824,Anne Hostel Yokozuna,幅田屋,Soba Restaurant,35.69969279752411,139.79715464769646
825,Anne Hostel Yokozuna,Khaosan World Ryogoku (カオサンワールド両国),Hostel,35.69442438680342,139.79678479877143
826,Anne Hostel Yokozuna,ちゃんこ道場 両国駅前店,Nabe Restaurant,35.6957306023775,139.79287551294695
827,Anne Hostel Yokozuna,お江戸 両国亭,Comedy Club,35.69446323568408,139.79640383760838
828,Anne Hostel Yokozuna,Edosoba Hosokawa (江戸蕎麦 ほそ川),Soba Restaurant,35.696816008153384,139.79781991204644
829,Anne Hostel Yokozuna,両国バーベキューガーデン,BBQ Joint,35.696537,139.792396
830,Anne Hostel Yokozuna,d collection,Bar,35.694969962914705,139.79566270737615
831,Anne Hostel Yokozuna,ちゃんこ川崎,Nabe Restaurant,35.69536416258061,139.79133186491512
832,Anne Hostel Yokozuna,ステーキくに 両国店,Steakhouse,35.697349070621314,139.79224057778166
833,Anne Hostel Yokozuna,浪花家 本店,Wagashi Place,35.69849546992678,139.79721850369629
834,Anne Hostel Yokozuna,Great Kanto Earthquake Memorial Museum (東京都復興記念館),History Museum,35.69963350029099,139.7967782082671
835,Anne Hostel Yokozuna,やきとり専門店 両国TAIKO,Yakitori Restaurant,35.693709950847406,139.79754120111465
836,Anne Hostel Yokozuna,Bar Helissio,Bar,35.69263722340006,139.79779685832247
837,Anne Hostel Yokozuna,モンゴル料理 ウランバートル,Mongolian Restaurant,35.6943524839789,139.7938291610567
838,Anne Hostel Yokozuna,炭火やきとん くう,Japanese Restaurant,35.694294204512005,139.79187103604326
839,Anne Hostel Yokozuna,楽蜀坊,Chinese Restaurant,35.69450977540901,139.792036068295
840,Anne Hostel Yokozuna,アケボノヤ,Japanese Restaurant,35.69493335704233,139.79379750788212
841,Anne Hostel Yokozuna,江戸そば 炭火焼 元,Soba Restaurant,35.69577823671323,139.79291439
842,Anne Hostel Yokozuna,東京水辺ライン 両国発着場 (Tokyo Mizube Cruising Line Ryōgoku Pier),Boat or Ferry,35.697591,139.792239
843,Anne Hostel Yokozuna,中国料理 三国志,Chinese Restaurant,35.695739547639874,139.79270615422033
868,ARTnSHELTER,7-Eleven (セブンイレブン 品川東大井1丁目店),Convenience Store,35.60661043567213,139.74326133728027
869,ARTnSHELTER,食堂,Cafeteria,35.60423652656042,139.74626548638864
870,ARTnSHELTER,Sushi Choushimaru (すし銚子丸),Sushi Restaurant,35.60311554186891,139.74027254018685
871,ARTnSHELTER,Samezu Sports Park (鮫洲運動公園),Park,35.606141,139.744697
872,ARTnSHELTER,Jonathan's (ジョナサン 鮫洲店),Restaurant,35.60576694655181,139.7426863183879
873,ARTnSHELTER,とんこつ ラーメン道楽 鮫洲本店,Ramen Restaurant,35.604324363751914,139.74141560097704
874,ARTnSHELTER,Yakiniku Otochan (焼肉 乙ちゃん),BBQ Joint,35.6020952461265,139.74175581485872
875,ARTnSHELTER,7-Eleven (セブンイレブン 品川東大井2丁目店),Convenience Store,35.601284784819754,139.73952446664123
876,ARTnSHELTER,HUMMER CAFE,American Restaurant,35.60760484056446,139.74509596824643
877,ARTnSHELTER,FamilyMart (ファミリーマート 南品川三丁目店),Convenience Store,35.607489,139.745115
878,ARTnSHELTER,FamilyMart (ファミリーマート 伊勢彦鮫洲旧東海道店),Convenience Store,35.604787,139.743163
879,ARTnSHELTER,PIZZERIA Bakka M'unica,Italian Restaurant,35.604905052128885,139.7435846335946
880,ARTnSHELTER,鮫洲入江広場,Park,35.6034400235133,139.7436197683309
881,ARTnSHELTER,しながわ花海道,Trail,35.600664342949756,139.74199360549576
882,ARTnSHELTER,勝島運河,Canal,35.60033405999564,139.74253177642822
883,ARTnSHELTER,ワダヤ,Liquor Store,35.607256825458634,139.73993768503564
884,ARTnSHELTER,Hamburg Diner Maru (ハンバーグダイナー マル),Yoshoku Restaurant,35.604774,139.73753
885,ARTnSHELTER,飯田屋酒店,Speakeasy,35.60593709900788,139.74367691628316
886,ARTnSHELTER,ひな鶏 そのだ,Fried Chicken Joint,35.60712895964115,139.74014374344316
887,ARTnSHELTER,そば会席 旧東海道 立会川 吉田家,Soba Restaurant,35.60006516571914,139.7410394798525
888,ARTnSHELTER,居酒屋 まつり,Sake Bar,35.604294471105675,139.74302530288696
889,ARTnSHELTER,Platforms 1-2 (1-2番線ホーム),Platform,35.604992526707015,139.74223727227607
890,ARTnSHELTER,鮫洲運転免許試験場前バス停,Bus Stop,35.604060435965145,139.74608478917702
891,ARTnSHELTER,横浜家系つけ麺らーめん春樹 鮫洲店,Ramen Restaurant,35.60459766020469,139.74305878406048
892,ARTnSHELTER,元祖中華つけ麺大王 鮫洲店,Ramen Restaurant,35.60367146290322,139.7459169545939
893,ARTnSHELTER,ARTnSHELTER,Hostel,35.60427629652849,139.74213198916092
894,ARTnSHELTER,台湾家庭料理 李月,Chinese Restaurant,35.60480082496146,139.74262146130752
895,ARTnSHELTER,めん処 ちどり,Noodle House,35.6067671463057,139.74397297223504
896,ARTnSHELTER,手造りピザ＆スパゲッティ D.A.T,Pizza Place,35.60311247465322,139.7425451874733
897,ARTnSHELTER,鮫洲試験場交差点,Intersection,35.603781,139.74597
898,ARTnSHELTER,つり堀釣太郎,Fishing Spot,35.605540208966175,139.74349055009165
899,ARTnSHELTER,鮫洲運河,Canal,35.60134598984655,139.74300384521484
900,ARTnSHELTER,駅前酒蔵 鮫州南店,Sake Bar,35.604990499634745,139.74307626485825
901,ARTnSHELTER,そば処 恵比寿庵,Soba Restaurant,35.60537837830834,139.7434040589825
902,AS House (Asakusa Smile),Kamiya Bar (神谷バー),Yoshoku Restaurant,35.71071848268861,139.79737461035106
903,AS House (Asakusa Smile),Asakusa Underground Shopping Street (浅草地下街),Shopping Mall,35.71089010444265,139.79780673980713
904,AS House (Asakusa Smile),7-Eleven (セブンイレブン 墨田本所2丁目店),Convenience Store,35.70375278608176,139.80142613709492
905,AS House (Asakusa Smile),Monju (文殊),Soba Restaurant,35.71117756254216,139.79795830584047
906,AS House (Asakusa Smile),Funawa Cafe (ふなわかふぇ),Café,35.710556343599144,139.79701817035675
907,AS House (Asakusa Smile),Asakusa Mugitoro (浅草むぎとろ),Japanese Restaurant,35.709132,139.79673
908,AS House (Asakusa Smile),Asahi Sky Room (アサヒスカイルーム),Beer Garden,35.710097352097804,139.80069279670715
909,AS House (Asakusa Smile),松屋 本所吾妻橋店,Donburi Restaurant,35.70861307722847,139.80466787883677
910,AS House (Asakusa Smile),Namiki Yabusoba (並木藪蕎麦),Soba Restaurant,35.709672115619824,139.79594327509403
911,AS House (Asakusa Smile),7-Eleven (セブンイレブン 墨田吾妻橋1丁目店),Convenience Store,35.70860983122806,139.80171471834183
912,AS House (Asakusa Smile),APA Hotel Asakusa-Ekimae (アパホテル浅草駅前),Bed & Breakfast,35.70827520620225,139.79570330438884
913,AS House (Asakusa Smile),塩パン屋 パン・メゾン,Bakery,35.70857312936779,139.80233679564276
914,AS House (Asakusa Smile),Mont Blanc (モンブラン),Yoshoku Restaurant,35.708396,139.803763
915,AS House (Asakusa Smile),Yudetaro (ゆで太郎),Soba Restaurant,35.708801,139.804713
916,AS House (Asakusa Smile),浅草焼きそば 福ちゃん,Noodle House,35.711218175136416,139.79795168055057
917,AS House (Asakusa Smile),Asakusa Unatetsu (浅草うな鐵),Unagi Restaurant,35.711357,139.798422
918,AS House (Asakusa Smile),Super Dry Hall (スーパードライホール),Event Space,35.709840297323915,139.7999762191286
919,AS House (Asakusa Smile),Ministop (ミニストップ 吾妻橋3丁目店),Convenience Store,35.7084017,139.8045568
920,AS House (Asakusa Smile),尾張屋 支店,Soba Restaurant,35.71078705750873,139.79705346109174
921,AS House (Asakusa Smile),Lawson (ローソン 吾妻橋三丁目店),Convenience Store,35.708677258864284,139.80535986810557
922,AS House (Asakusa Smile),Lawson (ローソン 墨田吾妻橋二丁目店),Convenience Store,35.70849534950213,139.80231977687905
923,AS House (Asakusa Smile),セブンイレブン 墨田東駒形3丁目店,Convenience Store,35.70624695701623,139.80447071863955
924,AS House (Asakusa Smile),ドトールコーヒーショップ 本所吾妻橋店,Coffee Shop,35.70862997560053,139.8041140048664
925,AS House (Asakusa Smile),My Basket (まいばすけっと 本所吾妻橋駅前店),Grocery Store,35.708748,139.8037
926,AS House (Asakusa Smile),煮干中華そば のじじR,Ramen Restaurant,35.708706,139.80286
927,AS House (Asakusa Smile),Taiyo no Tomato-men (太陽のトマト麺),Ramen Restaurant,35.708505,139.805963
928,AS House (Asakusa Smile),Gonpachi (権八),Japanese Restaurant,35.71031078619706,139.79819297790525
929,AS House (Asakusa Smile),本格石窯パン工房Tomtom,Bakery,35.709241955224776,139.80119100826542
930,AS House (Asakusa Smile),野口鮮魚店,Seafood Restaurant,35.70651461315901,139.80577361148406
931,AS House (Asakusa Smile),Sumidagawa Brewing (隅田川ブルーイング),Brewery,35.709527,139.800537
932,AS House (Asakusa Smile),チェドックザッカストア浅草,Antique Shop,35.70758061695271,139.7952371331038
933,AS House (Asakusa Smile),Cafe Meursault (カフェ・ムルソー),Café,35.70918669359358,139.79722405695128
934,AS House (Asakusa Smile),Hotel Mystays Asakusa (ホテルマイステイズ浅草),Hotel,35.70386485912637,139.7973522155716
935,AS House (Asakusa Smile),Inagaki (稲垣),Sake Bar,35.70795635722855,139.80224900040963
936,AS House (Asakusa Smile),Lawson Store 100 (ローソンストア100 東駒形二丁目店),Convenience Store,35.70606377574675,139.80064451694489
937,AS House (Asakusa Smile),アジトオブスクラップ浅草,Theme Park,35.70884963208375,139.80027400535724
938,AS House (Asakusa Smile),吾妻橋やぶそば,Soba Restaurant,35.70774685262742,139.79846056555417
939,AS House (Asakusa Smile),割烹 船生,Japanese Restaurant,35.70654264799005,139.80429450227032
940,AS House (Asakusa Smile),Halal Japanese Restaurant Origami,Japanese Restaurant,35.711461,139.798475
941,AS House (Asakusa Smile),Cafe Calaugh (カフェ きゃらふ),Pet Café,35.71038414089084,139.79739537671037
942,AS House (Asakusa Smile),吾妻橋東詰交差点,Intersection,35.70972443875647,139.79995025745148
943,AS House (Asakusa Smile),甘味処 西山,Wagashi Place,35.71077599547101,139.79711907915365
944,AS House (Asakusa Smile),Hotel Amanek Asakusa Azumabashi Sky (ホテル アマネク 浅草吾妻橋スカイ),Hotel,35.710408,139.80333
945,AS House (Asakusa Smile),Sunshine State Espresso,Coffee Shop,35.704084,139.797009
946,AS House (Asakusa Smile),マルエツプチ 本所四丁目店,Supermarket,35.704537378851924,139.8047114908855
947,AS House (Asakusa Smile),Oak Hostel Fuji (オークホステル富士),Hostel,35.70682382390428,139.80083108574047
948,AS House (Asakusa Smile),Builders,Burger Joint,35.707611,139.80271
949,AS House (Asakusa Smile),Unazen (鰻禅),Unagi Restaurant,35.70870550721253,139.80566747186117
950,AS House (Asakusa Smile),Authentique (オーセンティック),Vietnamese Restaurant,35.71124902781131,139.79782523940767
951,AS House (Asakusa Smile),Unagi Komagata Maekawa (鰻 駒形 前川 本店),Unagi Restaurant,35.708225,139.79631
952,AS House (Asakusa Smile),祥龍房,Chinese Restaurant,35.708496263653515,139.80423626619472
953,AS House (Asakusa Smile),Asakusa Smile Bar (浅草スマイルバー),Bar,35.70738503729868,139.8007317773429
954,AS House (Asakusa Smile),日本料理 冨久井,Japanese Restaurant,35.70877687879182,139.8038937986719
955,AS House (Asakusa Smile),墨田区役所 食堂,Cafeteria,35.710766,139.801464
956,AS House (Asakusa Smile),麺屋黒船 本所4丁目店,Chinese Restaurant,35.70458677540224,139.8047387510608
957,AS House (Asakusa Smile),リストランテ ラ・ラナリータ 吾妻橋店,Italian Restaurant,35.71014962172597,139.8007035255432
958,AS House (Asakusa Smile),リバーピア吾妻橋前バス停,Bus Stop,35.709473370463094,139.80023960285848
959,AS House (Asakusa Smile),7-Eleven (セブンイレブン 本所吾妻橋駅前店),Convenience Store,35.70876259434942,139.8038344756385
960,AS House (Asakusa Smile),平野屋,Gourmet Shop,35.704539,139.804523
961,AS House (Asakusa Smile),叙々苑キッチン 浅草店,Korean Restaurant,35.71151297575361,139.79859799146652
962,Asakusa Hostel Toukaisou,Don Quijote (ドン・キホーテ 浅草店),Discount Store,35.713686494022895,139.79327564275482
963,Asakusa Hostel Toukaisou,Hanayashiki (花やしき),Theme Park,35.71524457412754,139.7949584142744
964,Asakusa Hostel Toukaisou,Saizeriya (サイゼリヤ),Italian Restaurant,35.71371008000775,139.7932273209461
965,Asakusa Hostel Toukaisou,APA Hotel Asakusa Tawaramachi-Ekimae (アパホテル 浅草 田原町駅前),Hotel,35.71023560524321,139.79007523537953
966,Asakusa Hostel Toukaisou,LIFE (ライフ 浅草店),Supermarket,35.71586408044143,139.79235155456934
967,Asakusa Hostel Toukaisou,Asakusa View Hotel (浅草ビューホテル),Hotel,35.71533756093818,139.79233659828958
968,Asakusa Hostel Toukaisou,Fuglen Asakusa,Coffee Shop,35.71445378546578,139.79399666190147
969,Asakusa Hostel Toukaisou,Asakusa Engei Hall (浅草演芸ホール),Comedy Club,35.713473,139.793112
970,Asakusa Hostel Toukaisou,Starbucks,Coffee Shop,35.71092091803899,139.7947983071208
971,Asakusa Hostel Toukaisou,浅草Stella,Bar,35.71334531610646,139.79230037081047
972,Asakusa Hostel Toukaisou,Gong cha 貢茶,Bubble Tea Shop,35.712653,139.793274
973,Asakusa Hostel Toukaisou,Asakusa Menchi (浅草メンチ),Deli / Bodega,35.712874,139.796079
974,Asakusa Hostel Toukaisou,浅草九劇,Theater,35.715750487423186,139.7939047521786
975,Asakusa Hostel Toukaisou,Kagetsudo (浅草花月堂 本店),Snack Place,35.7146305,139.7951735
976,Asakusa Hostel Toukaisou,Ippudo (一風堂),Ramen Restaurant,35.71242863256798,139.7936476061342
977,Asakusa Hostel Toukaisou,Mont Blanc (モンブラン),Yoshoku Restaurant,35.71140820004703,139.7934427857399
978,Asakusa Hostel Toukaisou,Yayoi (やよい軒),Japanese Restaurant,35.708811,139.791484
979,Asakusa Hostel Toukaisou,Yoshikami (ヨシカミ),Yoshoku Restaurant,35.71293211808573,139.79368231990216
980,Asakusa Hostel Toukaisou,Asakusa Batting Stadium (浅草バッティングスタジアム),Athletics & Sports,35.712587344848984,139.79398240487512
981,Asakusa Hostel Toukaisou,The B Asakusa,Hotel,35.714167,139.792453
982,Asakusa Hostel Toukaisou,Asakusa Naniwaya (浅草浪花家),Wagashi Place,35.71482,139.79277
983,Asakusa Hostel Toukaisou,Asakusa Rockza (浅草ロック座),Strip Club,35.714147720404874,139.79332524772474
984,Asakusa Hostel Toukaisou,Asakusa Imahan (浅草今半),Sukiyaki Restaurant,35.713958,139.792205
985,Asakusa Hostel Toukaisou,FamilyMart (ファミリーマート 台東松が谷店),Convenience Store,35.71359498578448,139.78536665439606
986,Asakusa Hostel Toukaisou,やげん堀 新仲見世本店,Herbs & Spices Store,35.712178819889864,139.7943872754728
987,Asakusa Hostel Toukaisou,Richmond Hotel Asakusa (リッチモンドホテル浅草),Hotel,35.714274,139.7942733
988,Asakusa Hostel Toukaisou,Yakko (やっこ),Unagi Restaurant,35.71138264550821,139.79245667771644
989,Asakusa Hostel Toukaisou,Ramentei (ら麺亭),Ramen Restaurant,35.71286106167735,139.79443587362763
990,Asakusa Hostel Toukaisou,Kappa Kawataro Statue (かっぱ河太郎像),Outdoor Sculpture,35.714321,139.788725
991,Asakusa Hostel Toukaisou,プロパック かっぱ橋店,Food & Drink Shop,35.71472633016186,139.78895678253582
992,Asakusa Hostel Toukaisou,Hotel Keihan Asakusa (ホテル京阪浅草),Hotel,35.71497776303721,139.7926285300087
993,Asakusa Hostel Toukaisou,Tsukushi (つくし),Okonomiyaki Restaurant,35.71335776796835,139.79418356825227
994,Asakusa Hostel Toukaisou,Saizeriya (サイゼリヤ),Italian Restaurant,35.709273197075404,139.7920202359819
995,Asakusa Hostel Toukaisou,ローヤル珈琲店,Coffee Shop,35.71277537579946,139.79432539839968
996,Asakusa Hostel Toukaisou,水口食堂,Diner,35.71358459179828,139.79386246122485
997,Asakusa Hostel Toukaisou,昔ながらの喫茶店 友路有 浅草店,Tea Room,35.71200227490918,139.79514876964842
998,Asakusa Hostel Toukaisou,Fruit Parlor Goto (フルーツパーラー ゴトー),Dessert Shop,35.71572117773847,139.79373313033022
999,Asakusa Hostel Toukaisou,SALVATORE CUOMO & BAR 浅草,Pizza Place,35.712878129157644,139.79317981379296
1000,Asakusa Hostel Toukaisou,田窯,Arts & Crafts Store,35.71035871728762,139.7881734119958
1001,Asakusa Hostel Toukaisou,Hontosaya (本とさや),BBQ Joint,35.714241,139.792008
1002,Asakusa Hostel Toukaisou,Coffee Tengoku (珈琲 天国),Café,35.71310992817111,139.79419026284918
1003,Asakusa Hostel Toukaisou,村田屋酒店,Liquor Store,35.71648336264128,139.78720820647754
1004,Asakusa Hostel Toukaisou,舟和 本店 喫茶,Wagashi Place,35.711971,139.794686
1005,Asakusa Hostel Toukaisou,ホテル浅草＆カプセル,Bed & Breakfast,35.70914476787314,139.79326182756822
1006,Asakusa Hostel Toukaisou,Asakusa Unatetsu (浅草うな鐵),Unagi Restaurant,35.713642,139.792626
1007,Asakusa Hostel Toukaisou,Kappabashi Coffee & Bar,Coffee Shop,35.71677016413511,139.7893524169922
1008,Asakusa Hostel Toukaisou,Benitsuru (紅鶴),Café,35.71193050534491,139.79209771994297
1009,Asakusa Hostel Toukaisou,Kohikan (珈琲館),Coffee Shop,35.711331,139.79392
1010,Asakusa Hostel Toukaisou,HALAL ラーメン 浅草成田屋,Halal Restaurant,35.714693603479425,139.79517071343372
1011,Asakusa Hostel Toukaisou,お好み焼き・もんじゃ OCOMO,Okonomiyaki Restaurant,35.711802,139.792325
1012,Asakusa Hostel Toukaisou,My Basket (まいばすけっと 合羽橋南店),Grocery Store,35.712545419799774,139.78709978671412
1013,Asakusa Hostel Toukaisou,7-Eleven (セブンイレブン 台東西浅草3丁目店),Convenience Store,35.71645460002886,139.79057938233206
1014,Asakusa Hostel Toukaisou,Naruto Taiyaki Honpo (鳴門鯛焼本舗),Wagashi Place,35.712124,139.794741
1015,Asakusa Hostel Toukaisou,からあげ 縁 浅草総本店,Fried Chicken Joint,35.71259202092596,139.79253304471402
1016,Asakusa Hostel Toukaisou,Men Mitsui (麺 みつヰ),Ramen Restaurant,35.71251679124823,139.79040767313285
1017,Asakusa Hostel Toukaisou,Lawson Store 100 (ローソンストア100 浅草通り店),Convenience Store,35.71049476156283,139.7872944566185
1018,Asakusa Hostel Toukaisou,Yonekyu (米久本店),Sukiyaki Restaurant,35.71590884599775,139.79365183171728
1019,Asakusa Hostel Toukaisou,SKY GRILL BUFFET&BAR 武蔵,Buffet,35.71535950428046,139.79248641798478
1020,Asakusa Hostel Toukaisou,Japan Percussion Center (コマキ楽器 ジャパンパーカッションセンター),Music Store,35.71053769652756,139.7916379958228
1021,Asakusa Hostel Toukaisou,Asakusa Beer Kobo feat.Campion Ale (浅草ビール工房 feat.Campion Ale),Pub,35.71186372442376,139.7909146583239
1022,Asakusa Hostel Toukaisou,Shochan (正ちゃん),Sake Bar,35.71441792270803,139.7940651835756
1023,Asakusa Hostel Toukaisou,Kibitaro (醤油らーめん きび太郎),Ramen Restaurant,35.71538582512715,139.79256015699994
1024,Asakusa Hostel Toukaisou,MOS Burger (モスバーガー 合羽橋店),Fast Food Restaurant,35.71041050520192,139.78798613906883
1025,Asakusa Hostel Toukaisou,SUKEMASA COFFEE,Coffee Shop,35.71524247923169,139.79537531733513
1026,Asakusa Hostel Toukaisou,Ikinari Steak (いきなり!ステーキ),Steakhouse,35.711089584410026,139.79366675019264
1027,Asakusa Hostel Toukaisou,Sometaro (染太郎),Okonomiyaki Restaurant,35.71186028920374,139.79098558787965
1028,Asakusa Hostel Toukaisou,らぁめん めん○,Ramen Restaurant,35.71549975821015,139.7936508628737
1029,Asakusa Hostel Toukaisou,FamilyMart (ファミリーマート 花やしき遊園地前店),Convenience Store,35.715674824939335,139.79371599902055
1030,Asakusa Hostel Toukaisou,どぜう飯田屋,Nabe Restaurant,35.713950456865064,139.791610081814
1031,Asakusa Hostel Toukaisou,中国料理 華春楼,Chinese Restaurant,35.71704861788993,139.79349838313198
1032,Asakusa Hostel Toukaisou,風和里,Furniture / Home Store,35.713183231332245,139.78870420022736
1033,Asakusa Hostel Toukaisou,Asakusa Oto (浅草 おと),Japanese Restaurant,35.715148,139.792785
1034,Asakusa Hostel Toukaisou,Lawson Store 100 (ローソンストア100 西浅草店),Convenience Store,35.715448,139.790658
1035,Asakusa Hostel Toukaisou,浅草もんじゃ かっぱ祭り,Monjayaki Restaurant,35.71072869137812,139.78998772196707
1036,Asakusa Hostel Toukaisou,Asakusa Central Hotel (浅草セントラルホテル),Bed & Breakfast,35.71122647937327,139.79412525780728
1037,Asakusa Hostel Toukaisou,元祖食品サンプル屋 合羽橋ショールーム,Arts & Crafts Store,35.71479162782851,139.78895030265676
1038,Asakusa Hostel Toukaisou,Agora Place Asakusa (アゴーラ・プレイス浅草),Hotel,35.709065693041225,139.79115222931657
1039,Asakusa Hostel Toukaisou,WIRED HOTEL ASAKUSA,Bed & Breakfast,35.71570089210628,139.79392654092152
1040,Asakusa Hostel Toukaisou,Sekine (セキネ 浅草店),Chinese Restaurant,35.71243586200039,139.79315698818206
1041,Asakusa Hostel Toukaisou,Bamiyan (バーミヤン 浅草かっぱ橋店),Chinese Restaurant,35.717213,139.789611
1042,Asakusa Hostel Toukaisou,My Basket (まいばすけっと 合羽橋北店),Grocery Store,35.7168581659823,139.7885712538816
1043,Asakusa Hostel Toukaisou,はし藤本店,Arts & Crafts Store,35.71269783604607,139.78860422796723
1044,Asakusa Hostel Toukaisou,Up To You Coffee,Coffee Shop,35.714954,139.78618
1045,Asakusa Hostel Toukaisou,Koyanagi (小柳),Unagi Restaurant,35.71224989527666,139.79563070560974
1046,Asakusa Hostel Toukaisou,富味屋,BBQ Joint,35.7157256801791,139.79327207292155
1047,Asakusa Hostel Toukaisou,Sensing Touch of Earth (センシング タッチ オブ アース),Coffee Shop,35.715110923349265,139.78885045393704
1048,Asakusa Hostel Toukaisou,Freshness Burger (フレッシュネスバーガー),Burger Joint,35.7099912,139.7917257
1049,Asakusa Hostel Toukaisou,Sushi Ken (浅草すし賢),Sushi Restaurant,35.713879522905735,139.79249107261907
1050,Asakusa Hostel Toukaisou,七五三,Monjayaki Restaurant,35.714317579414406,139.78986415600082
1051,Asakusa Hostel Toukaisou,ひさご通り商店街,Shopping Mall,35.71624406234823,139.7938847533368
1052,Asakusa Hostel Toukaisou,Tendon Tenya (天丼てんや),Tempura Restaurant,35.71145254002669,139.7929398715496
1053,Asakusa Hostel Toukaisou,Tonkatsu Yutaka (とんかつ ゆたか),Tonkatsu Restaurant,35.71178917687991,139.79409677657793
1054,Asakusa Hostel Toukaisou,Khaosan World Asakusa Ryokan & Hostel (カオサンワールド浅草 旅館＆ホステル),Hostel,35.714668637065,139.79171812534332
1055,Asakusa Hostel Toukaisou,Lawson (ローソン 台東元浅草四丁目店),Convenience Store,35.710396125051744,139.78801279048093
1056,Asakusa Hostel Toukaisou,The Gate Hotel (ザ・ゲートホテル雷門),Hotel,35.71086570574497,139.79531611923287
1057,Asakusa Hostel Toukaisou,Kushikatsu Dengana (串かつ でんがな),Kushikatsu Restaurant,35.71169809391118,139.79299284517765
1058,Asakusa Hostel Toukaisou,Kinraku (金楽),BBQ Joint,35.711925625951665,139.79391060253212
1059,Asakusa Hostel Toukaisou,HUB,Pub,35.711832,139.792811
1060,Asakusa Hostel Toukaisou,Katsukichi (元祖味噌とんかつ カツ吉),Tonkatsu Restaurant,35.71181733991992,139.79556366595617
1061,Asakusa Hostel Toukaisou,churrascaria Que bom!,Brazilian Restaurant,35.712783077784984,139.79136186225045
1062,Asakusa Ryokan Toukaisou,Don Quijote (ドン・キホーテ 浅草店),Discount Store,35.713686494022895,139.79327564275482
1063,Asakusa Ryokan Toukaisou,Hanayashiki (花やしき),Theme Park,35.71524457412754,139.7949584142744
1064,Asakusa Ryokan Toukaisou,Saizeriya (サイゼリヤ),Italian Restaurant,35.71371008000775,139.7932273209461
1065,Asakusa Ryokan Toukaisou,APA Hotel Asakusa Tawaramachi-Ekimae (アパホテル 浅草 田原町駅前),Hotel,35.71023560524321,139.79007523537953
1066,Asakusa Ryokan Toukaisou,LIFE (ライフ 浅草店),Supermarket,35.71586408044143,139.79235155456934
1067,Asakusa Ryokan Toukaisou,Asakusa View Hotel (浅草ビューホテル),Hotel,35.71533756093818,139.79233659828958
1068,Asakusa Ryokan Toukaisou,Fuglen Asakusa,Coffee Shop,35.71445378546578,139.79399666190147
1069,Asakusa Ryokan Toukaisou,Asakusa Engei Hall (浅草演芸ホール),Comedy Club,35.713473,139.793112
1070,Asakusa Ryokan Toukaisou,Starbucks,Coffee Shop,35.71092091803899,139.7947983071208
1071,Asakusa Ryokan Toukaisou,浅草Stella,Bar,35.71334531610646,139.79230037081047
1072,Asakusa Ryokan Toukaisou,Gong cha 貢茶,Bubble Tea Shop,35.712653,139.793274
1073,Asakusa Ryokan Toukaisou,Asakusa Menchi (浅草メンチ),Deli / Bodega,35.712874,139.796079
1074,Asakusa Ryokan Toukaisou,浅草九劇,Theater,35.715750487423186,139.7939047521786
1075,Asakusa Ryokan Toukaisou,Kagetsudo (浅草花月堂 本店),Snack Place,35.7146305,139.7951735
1076,Asakusa Ryokan Toukaisou,Ippudo (一風堂),Ramen Restaurant,35.71242863256798,139.7936476061342
1077,Asakusa Ryokan Toukaisou,Mont Blanc (モンブラン),Yoshoku Restaurant,35.71140820004703,139.7934427857399
1078,Asakusa Ryokan Toukaisou,Yayoi (やよい軒),Japanese Restaurant,35.708811,139.791484
1079,Asakusa Ryokan Toukaisou,Yoshikami (ヨシカミ),Yoshoku Restaurant,35.71293211808573,139.79368231990216
1080,Asakusa Ryokan Toukaisou,Asakusa Batting Stadium (浅草バッティングスタジアム),Athletics & Sports,35.712587344848984,139.79398240487512
1081,Asakusa Ryokan Toukaisou,The B Asakusa,Hotel,35.714167,139.792453
1082,Asakusa Ryokan Toukaisou,Asakusa Naniwaya (浅草浪花家),Wagashi Place,35.71482,139.79277
1083,Asakusa Ryokan Toukaisou,Asakusa Rockza (浅草ロック座),Strip Club,35.714147720404874,139.79332524772474
1084,Asakusa Ryokan Toukaisou,Asakusa Imahan (浅草今半),Sukiyaki Restaurant,35.713958,139.792205
1085,Asakusa Ryokan Toukaisou,FamilyMart (ファミリーマート 台東松が谷店),Convenience Store,35.71359498578448,139.78536665439606
1086,Asakusa Ryokan Toukaisou,やげん堀 新仲見世本店,Herbs & Spices Store,35.712178819889864,139.7943872754728
1087,Asakusa Ryokan Toukaisou,Richmond Hotel Asakusa (リッチモンドホテル浅草),Hotel,35.714274,139.7942733
1088,Asakusa Ryokan Toukaisou,Yakko (やっこ),Unagi Restaurant,35.71138264550821,139.79245667771644
1089,Asakusa Ryokan Toukaisou,Ramentei (ら麺亭),Ramen Restaurant,35.71286106167735,139.79443587362763
1090,Asakusa Ryokan Toukaisou,Kappa Kawataro Statue (かっぱ河太郎像),Outdoor Sculpture,35.714321,139.788725
1091,Asakusa Ryokan Toukaisou,プロパック かっぱ橋店,Food & Drink Shop,35.71472633016186,139.78895678253582
1092,Asakusa Ryokan Toukaisou,Hotel Keihan Asakusa (ホテル京阪浅草),Hotel,35.71497776303721,139.7926285300087
1093,Asakusa Ryokan Toukaisou,Tsukushi (つくし),Okonomiyaki Restaurant,35.71335776796835,139.79418356825227
1094,Asakusa Ryokan Toukaisou,Saizeriya (サイゼリヤ),Italian Restaurant,35.709273197075404,139.7920202359819
1095,Asakusa Ryokan Toukaisou,ローヤル珈琲店,Coffee Shop,35.71277537579946,139.79432539839968
1096,Asakusa Ryokan Toukaisou,水口食堂,Diner,35.71358459179828,139.79386246122485
1097,Asakusa Ryokan Toukaisou,昔ながらの喫茶店 友路有 浅草店,Tea Room,35.71200227490918,139.79514876964842
1098,Asakusa Ryokan Toukaisou,Fruit Parlor Goto (フルーツパーラー ゴトー),Dessert Shop,35.71572117773847,139.79373313033022
1099,Asakusa Ryokan Toukaisou,SALVATORE CUOMO & BAR 浅草,Pizza Place,35.712878129157644,139.79317981379296
1100,Asakusa Ryokan Toukaisou,田窯,Arts & Crafts Store,35.71035871728762,139.7881734119958
1101,Asakusa Ryokan Toukaisou,Hontosaya (本とさや),BBQ Joint,35.714241,139.792008
1102,Asakusa Ryokan Toukaisou,Coffee Tengoku (珈琲 天国),Café,35.71310992817111,139.79419026284918
1103,Asakusa Ryokan Toukaisou,村田屋酒店,Liquor Store,35.71648336264128,139.78720820647754
1104,Asakusa Ryokan Toukaisou,舟和 本店 喫茶,Wagashi Place,35.711971,139.794686
1105,Asakusa Ryokan Toukaisou,ホテル浅草＆カプセル,Bed & Breakfast,35.70914476787314,139.79326182756822
1106,Asakusa Ryokan Toukaisou,Asakusa Unatetsu (浅草うな鐵),Unagi Restaurant,35.713642,139.792626
1107,Asakusa Ryokan Toukaisou,Kappabashi Coffee & Bar,Coffee Shop,35.71677016413511,139.7893524169922
1108,Asakusa Ryokan Toukaisou,Benitsuru (紅鶴),Café,35.71193050534491,139.79209771994297
1109,Asakusa Ryokan Toukaisou,Kohikan (珈琲館),Coffee Shop,35.711331,139.79392
1110,Asakusa Ryokan Toukaisou,HALAL ラーメン 浅草成田屋,Halal Restaurant,35.714693603479425,139.79517071343372
1111,Asakusa Ryokan Toukaisou,お好み焼き・もんじゃ OCOMO,Okonomiyaki Restaurant,35.711802,139.792325
1112,Asakusa Ryokan Toukaisou,My Basket (まいばすけっと 合羽橋南店),Grocery Store,35.712545419799774,139.78709978671412
1113,Asakusa Ryokan Toukaisou,7-Eleven (セブンイレブン 台東西浅草3丁目店),Convenience Store,35.71645460002886,139.79057938233206
1114,Asakusa Ryokan Toukaisou,Naruto Taiyaki Honpo (鳴門鯛焼本舗),Wagashi Place,35.712124,139.794741
1115,Asakusa Ryokan Toukaisou,からあげ 縁 浅草総本店,Fried Chicken Joint,35.71259202092596,139.79253304471402
1116,Asakusa Ryokan Toukaisou,Men Mitsui (麺 みつヰ),Ramen Restaurant,35.71251679124823,139.79040767313285
1117,Asakusa Ryokan Toukaisou,Lawson Store 100 (ローソンストア100 浅草通り店),Convenience Store,35.71049476156283,139.7872944566185
1118,Asakusa Ryokan Toukaisou,Yonekyu (米久本店),Sukiyaki Restaurant,35.71590884599775,139.79365183171728
1119,Asakusa Ryokan Toukaisou,SKY GRILL BUFFET&BAR 武蔵,Buffet,35.71535950428046,139.79248641798478
1120,Asakusa Ryokan Toukaisou,Japan Percussion Center (コマキ楽器 ジャパンパーカッションセンター),Music Store,35.71053769652756,139.7916379958228
1121,Asakusa Ryokan Toukaisou,Asakusa Beer Kobo feat.Campion Ale (浅草ビール工房 feat.Campion Ale),Pub,35.71186372442376,139.7909146583239
1122,Asakusa Ryokan Toukaisou,Shochan (正ちゃん),Sake Bar,35.71441792270803,139.7940651835756
1123,Asakusa Ryokan Toukaisou,Kibitaro (醤油らーめん きび太郎),Ramen Restaurant,35.71538582512715,139.79256015699994
1124,Asakusa Ryokan Toukaisou,MOS Burger (モスバーガー 合羽橋店),Fast Food Restaurant,35.71041050520192,139.78798613906883
1125,Asakusa Ryokan Toukaisou,SUKEMASA COFFEE,Coffee Shop,35.71524247923169,139.79537531733513
1126,Asakusa Ryokan Toukaisou,Ikinari Steak (いきなり!ステーキ),Steakhouse,35.711089584410026,139.79366675019264
1127,Asakusa Ryokan Toukaisou,Sometaro (染太郎),Okonomiyaki Restaurant,35.71186028920374,139.79098558787965
1128,Asakusa Ryokan Toukaisou,らぁめん めん○,Ramen Restaurant,35.71549975821015,139.7936508628737
1129,Asakusa Ryokan Toukaisou,FamilyMart (ファミリーマート 花やしき遊園地前店),Convenience Store,35.715674824939335,139.79371599902055
1130,Asakusa Ryokan Toukaisou,どぜう飯田屋,Nabe Restaurant,35.713950456865064,139.791610081814
1131,Asakusa Ryokan Toukaisou,中国料理 華春楼,Chinese Restaurant,35.71704861788993,139.79349838313198
1132,Asakusa Ryokan Toukaisou,風和里,Furniture / Home Store,35.713183231332245,139.78870420022736
1133,Asakusa Ryokan Toukaisou,Asakusa Oto (浅草 おと),Japanese Restaurant,35.715148,139.792785
1134,Asakusa Ryokan Toukaisou,Lawson Store 100 (ローソンストア100 西浅草店),Convenience Store,35.715448,139.790658
1135,Asakusa Ryokan Toukaisou,浅草もんじゃ かっぱ祭り,Monjayaki Restaurant,35.71072869137812,139.78998772196707
1136,Asakusa Ryokan Toukaisou,Asakusa Central Hotel (浅草セントラルホテル),Bed & Breakfast,35.71122647937327,139.79412525780728
1137,Asakusa Ryokan Toukaisou,元祖食品サンプル屋 合羽橋ショールーム,Arts & Crafts Store,35.71479162782851,139.78895030265676
1138,Asakusa Ryokan Toukaisou,Agora Place Asakusa (アゴーラ・プレイス浅草),Hotel,35.709065693041225,139.79115222931657
1139,Asakusa Ryokan Toukaisou,WIRED HOTEL ASAKUSA,Bed & Breakfast,35.71570089210628,139.79392654092152
1140,Asakusa Ryokan Toukaisou,Sekine (セキネ 浅草店),Chinese Restaurant,35.71243586200039,139.79315698818206
1141,Asakusa Ryokan Toukaisou,Bamiyan (バーミヤン 浅草かっぱ橋店),Chinese Restaurant,35.717213,139.789611
1142,Asakusa Ryokan Toukaisou,My Basket (まいばすけっと 合羽橋北店),Grocery Store,35.7168581659823,139.7885712538816
1143,Asakusa Ryokan Toukaisou,はし藤本店,Arts & Crafts Store,35.71269783604607,139.78860422796723
1144,Asakusa Ryokan Toukaisou,Up To You Coffee,Coffee Shop,35.714954,139.78618
1145,Asakusa Ryokan Toukaisou,Koyanagi (小柳),Unagi Restaurant,35.71224989527666,139.79563070560974
1146,Asakusa Ryokan Toukaisou,富味屋,BBQ Joint,35.7157256801791,139.79327207292155
1147,Asakusa Ryokan Toukaisou,Sensing Touch of Earth (センシング タッチ オブ アース),Coffee Shop,35.715110923349265,139.78885045393704
1148,Asakusa Ryokan Toukaisou,Freshness Burger (フレッシュネスバーガー),Burger Joint,35.7099912,139.7917257
1149,Asakusa Ryokan Toukaisou,Sushi Ken (浅草すし賢),Sushi Restaurant,35.713879522905735,139.79249107261907
1150,Asakusa Ryokan Toukaisou,七五三,Monjayaki Restaurant,35.714317579414406,139.78986415600082
1151,Asakusa Ryokan Toukaisou,ひさご通り商店街,Shopping Mall,35.71624406234823,139.7938847533368
1152,Asakusa Ryokan Toukaisou,Tendon Tenya (天丼てんや),Tempura Restaurant,35.71145254002669,139.7929398715496
1153,Asakusa Ryokan Toukaisou,Tonkatsu Yutaka (とんかつ ゆたか),Tonkatsu Restaurant,35.71178917687991,139.79409677657793
1154,Asakusa Ryokan Toukaisou,Khaosan World Asakusa Ryokan & Hostel (カオサンワールド浅草 旅館＆ホステル),Hostel,35.714668637065,139.79171812534332
1155,Asakusa Ryokan Toukaisou,Lawson (ローソン 台東元浅草四丁目店),Convenience Store,35.710396125051744,139.78801279048093
1156,Asakusa Ryokan Toukaisou,The Gate Hotel (ザ・ゲートホテル雷門),Hotel,35.71086570574497,139.79531611923287
1157,Asakusa Ryokan Toukaisou,Kushikatsu Dengana (串かつ でんがな),Kushikatsu Restaurant,35.71169809391118,139.79299284517765
1158,Asakusa Ryokan Toukaisou,Kinraku (金楽),BBQ Joint,35.711925625951665,139.79391060253212
1159,Asakusa Ryokan Toukaisou,HUB,Pub,35.711832,139.792811
1160,Asakusa Ryokan Toukaisou,Katsukichi (元祖味噌とんかつ カツ吉),Tonkatsu Restaurant,35.71181733991992,139.79556366595617
1161,Asakusa Ryokan Toukaisou,churrascaria Que bom!,Brazilian Restaurant,35.712783077784984,139.79136186225045
1162,Asakusahotel Wasou,Senso-ji Temple (浅草寺),Buddhist Temple,35.71466210373382,139.79676067829132
1163,Asakusahotel Wasou,Don Quijote (ドン・キホーテ 浅草店),Discount Store,35.713686494022895,139.79327564275482
1164,Asakusahotel Wasou,Sumida Park (隅田公園),Park,35.71362897870851,139.80129148471693
1165,Asakusahotel Wasou,Hanayashiki (花やしき),Theme Park,35.71524457412754,139.7949584142744
1166,Asakusahotel Wasou,Nakamise Shopping Street (仲見世商店街),Shopping Mall,35.711957258609445,139.79645758867264
1167,Asakusahotel Wasou,Kamiya Bar (神谷バー),Yoshoku Restaurant,35.71071848268861,139.79737461035106
1168,Asakusahotel Wasou,Raijin Statue (雷神像),Outdoor Sculpture,35.711097215478716,139.79631140828133
1169,Asakusahotel Wasou,Saizeriya (サイゼリヤ),Italian Restaurant,35.71371008000775,139.7932273209461
1170,Asakusahotel Wasou,Ichiran (一蘭),Ramen Restaurant,35.711183,139.797598
1171,Asakusahotel Wasou,Asakusa Culture Tourist Information Center (浅草文化観光センター),Tourist Information Center,35.710819891216104,139.79640518708786
1172,Asakusahotel Wasou,Fuglen Asakusa,Coffee Shop,35.71445378546578,139.79399666190147
1173,Asakusahotel Wasou,Asakusa Engei Hall (浅草演芸ホール),Comedy Club,35.713473,139.793112
1174,Asakusahotel Wasou,Starbucks,Coffee Shop,35.71092091803899,139.7947983071208
1175,Asakusahotel Wasou,Suzukien (壽々喜園),Dessert Shop,35.71626708773,139.7968863517339
1176,Asakusahotel Wasou,浅草Stella,Bar,35.71334531610646,139.79230037081047
1177,Asakusahotel Wasou,Gong cha 貢茶,Bubble Tea Shop,35.712653,139.793274
1178,Asakusahotel Wasou,Asakusa Menchi (浅草メンチ),Deli / Bodega,35.712874,139.796079
1179,Asakusahotel Wasou,Monju (文殊),Soba Restaurant,35.71117756254216,139.79795830584047
1180,Asakusahotel Wasou,Kameju (亀十),Wagashi Place,35.71088018293658,139.7968225577228
1181,Asakusahotel Wasou,Umezono (梅園),Dessert Shop,35.712371474597205,139.7963362187147
1182,Asakusahotel Wasou,Funawa Cafe (ふなわかふぇ),Café,35.710556343599144,139.79701817035675
1183,Asakusahotel Wasou,浅草九劇,Theater,35.715750487423186,139.7939047521786
1184,Asakusahotel Wasou,Asakusa Mugitoro (浅草むぎとろ),Japanese Restaurant,35.709132,139.79673
1185,Asakusahotel Wasou,ポポンデッタ with 東武鉄道ギャラリー,Hobby Shop,35.71185228680803,139.79846771975508
1186,Asakusahotel Wasou,Yoroiya (与ろゐ屋),Ramen Restaurant,35.712821695966966,139.79677806067403
1187,Asakusahotel Wasou,祭用品 浅草中屋,Miscellaneous Shop,35.71348178013052,139.7972634951916
1188,Asakusahotel Wasou,Asahi Sky Room (アサヒスカイルーム),Beer Garden,35.710097352097804,139.80069279670715
1189,Asakusahotel Wasou,Kagetsudo (浅草花月堂 本店),Snack Place,35.7146305,139.7951735
1190,Asakusahotel Wasou,Ikinari Steak (いきなり!ステーキ),Steakhouse,35.711828,139.797647
1191,Asakusahotel Wasou,Ippudo (一風堂),Ramen Restaurant,35.71242863256798,139.7936476061342
1192,Asakusahotel Wasou,Mont Blanc (モンブラン),Yoshoku Restaurant,35.71140820004703,139.7934427857399
1193,Asakusahotel Wasou,Namiki Yabusoba (並木藪蕎麦),Soba Restaurant,35.709672115619824,139.79594327509403
1194,Asakusahotel Wasou,Yoshikami (ヨシカミ),Yoshoku Restaurant,35.71293211808573,139.79368231990216
1195,Asakusahotel Wasou,Asakusa Batting Stadium (浅草バッティングスタジアム),Athletics & Sports,35.712587344848984,139.79398240487512
1196,Asakusahotel Wasou,The B Asakusa,Hotel,35.714167,139.792453
1197,Asakusahotel Wasou,Asakusa Naniwaya (浅草浪花家),Wagashi Place,35.71482,139.79277
1198,Asakusahotel Wasou,Asakusa Rockza (浅草ロック座),Strip Club,35.714147720404874,139.79332524772474
1199,Asakusahotel Wasou,Oimoyasan Koshin (おいもやさん 興伸),Dessert Shop,35.712753,139.796713
1200,Asakusahotel Wasou,Asakusa Gyukatsu (浅草牛かつ),Japanese Restaurant,35.710773043294516,139.79594461619854
1201,Asakusahotel Wasou,Viewing Deck (浅草文化観光センター 展望テラス),Scenic Lookout,35.7107335922138,139.7966316804619
1202,Asakusahotel Wasou,Asakusa Imahan (浅草今半),Sukiyaki Restaurant,35.713958,139.792205
1203,Asakusahotel Wasou,Suke6 Diner / Manufacture,Café,35.71227306355277,139.79931857193904
1204,Asakusahotel Wasou,やげん堀 新仲見世本店,Herbs & Spices Store,35.712178819889864,139.7943872754728
1205,Asakusahotel Wasou,Kaminari Issa (雷一茶),Wagashi Place,35.71419130764498,139.7986160586124
1206,Asakusahotel Wasou,Richmond Hotel Asakusa (リッチモンドホテル浅草),Hotel,35.714274,139.7942733
1207,Asakusahotel Wasou,Yakko (やっこ),Unagi Restaurant,35.71138264550821,139.79245667771644
1208,Asakusahotel Wasou,Ramentei (ら麺亭),Ramen Restaurant,35.71286106167735,139.79443587362763
1209,Asakusahotel Wasou,Asakusa Unatetsu (浅草うな鐵),Unagi Restaurant,35.711357,139.798422
1210,Asakusahotel Wasou,Tsukushi (つくし),Okonomiyaki Restaurant,35.71335776796835,139.79418356825227
1211,Asakusahotel Wasou,ローヤル珈琲店,Coffee Shop,35.71277537579946,139.79432539839968
1212,Asakusahotel Wasou,尾張屋 支店,Soba Restaurant,35.71078705750873,139.79705346109174
1213,Asakusahotel Wasou,水口食堂,Diner,35.71358459179828,139.79386246122485
1214,Asakusahotel Wasou,昔ながらの喫茶店 友路有 浅草店,Tea Room,35.71200227490918,139.79514876964842
